[{"name":"ALL992","street":"Piłsudskiego","buildingnumber":"2/4 ","postcode":"95-070","town":"Aleksandrów Łódzki","latitude":"51.81284","longitude":"19.31626","paymentavailable":false,"operatinghours":"Paczkomat: 24/7","locationdescription":"Przy markecie Polomarket","paymentpointdescr":null,"partnerid":0,"paymenttype":0,"type":"Pack Machine"},{"name":"AND039","street":"Krakowska","buildingnumber":"83","postcode":"34-120","town":"Andrychów","latitude":"49.85558","longitude":"19.33405","paymentavailable":false,"operatinghours":"Paczkomat: 24/7","locationdescription":"parking obok Biedronki","paymentpointdescr":"Płatność kartą wyłącznie w paczkomacie. Dostępność: 24/7","partnerid":3,"paymenttype":0,"type":"Pack Machine"},{"name":"AUG848","street":"Wojska polskiego","buildingnumber":"24","postcode":"16-300","town":"Augustów","latitude":"53.84141","longitude":"22.97648","paymentavailable":false,"operatinghours":null,"locationdescription":"Kaufland","paymentpointdescr":null,"partnerid":0,"paymenttype":0,"type":"Pack Machine"},{"name":"BAR162","street":"Warszawska","buildingnumber":"22","postcode":"11-200","town":"Bartoszyce","latitude":"54.24325","longitude":"20.80758","paymentavailable":true,"operatinghours":"Paczkomat: 24/7","locationdescription":"Stacja paliw LOTOS w pobliżu dyskontu Biedronka","paymentpointdescr":"Płatność kartą wyłącznie w paczkomacie. Dostępność: 24/7","partnerid":0,"paymenttype":2,"type":"Pack Machine"},{"name":"BBI005","street":"Żywiecka","buildingnumber":"63","postcode":"43-346","town":"Bielsko-Biała","latitude":"49.81176","longitude":"19.0558","paymentavailable":false,"operatinghours":"Paczkomat: 24/7 ","locationdescription":"Stacja paliw LOTOS naprzeciwko elektrociepłowni","paymentpointdescr":null,"partnerid":1,"paymenttype":0,"type":"Pack Machine"},{"name":"BBI233","street":"Warszawska","buildingnumber":"180","postcode":"43-300","town":"Bielsko-Biała","latitude":"49.84564","longitude":"19.03693","paymentavailable":false,"operatinghours":"Paczkomat: 24/7","locationdescription":"Przy markecie TESCO","paymentpointdescr":null,"partnerid":0,"paymenttype":0,"type":"Pack Machine"},{"name":"BBI234","street":"Doliny Miętusiej","buildingnumber":"3","postcode":"43-300","town":"Bielsko-Biała","latitude":"49.8025","longitude":"19.03162","paymentavailable":true,"operatinghours":"Paczkomat: 24/7","locationdescription":"Parking w pobliżu poczty i salonu fryzjerskiego","paymentpointdescr":"Płatność kartą wyłącznie w paczkomacie. Dostępność: 24/7","partnerid":0,"paymenttype":2,"type":"Pack Machine"},{"name":"BBI841","street":"Olimpijska","buildingnumber":"28","postcode":"43-346","town":"Bielsko-Biała","latitude":"49.85316","longitude":"19.04413","paymentavailable":true,"operatinghours":"Paczkomat: 24/7","locationdescription":"Przy markecie Intermarche","paymentpointdescr":"Płatność kartą wyłącznie w paczkomacie. Dostępność 24/7.","partnerid":0,"paymenttype":2,"type":"Pack Machine"},{"name":"BBI843","street":"Bystrzańska","buildingnumber":"29","postcode":"43-300","town":"Bielsko-Biała","latitude":"49.78929","longitude":"19.06167","paymentavailable":true,"operatinghours":"Paczkomat: 24/7","locationdescription":"Euro Contract","paymentpointdescr":"Płatność kartą wyłącznie w paczkomacie. Dostępność: 24/7","partnerid":0,"paymenttype":2,"type":"Pack Machine"},{"name":"BBI935","street":"Cieszyńska","buildingnumber":"176","postcode":"43-300","town":"Bielsko-Biała","latitude":"49.81368","longitude":"19.0152","paymentavailable":true,"operatinghours":null,"locationdescription":"Przy Stacji Paliw BP","paymentpointdescr":"Płatność kartą wyłącznie w paczkomacie. Dostępność: 24/7","partnerid":0,"paymenttype":2,"type":"Pack Machine"},{"name":"BBI938","street":"Partyzantów/Dr. M. Michałowicza","buildingnumber":"44","postcode":"43-300","town":"Bielsko-Biała","latitude":"49.81523","longitude":"19.04355","paymentavailable":true,"operatinghours":null,"locationdescription":"Na stacji Statoil","paymentpointdescr":"Płatność kartą wyłącznie w paczkomacie. Dostępność: 24/7","partnerid":0,"paymenttype":2,"type":"Pack Machine"},{"name":"BEL059","street":"Lipowa","buildingnumber":"53a","postcode":"97-400","town":"Bełchatów","latitude":"51.36154","longitude":"19.35523","paymentavailable":false,"operatinghours":"Paczkomat: 24/7","locationdescription":"Stacja paliw AREX w pobliżu stacji Statoil","paymentpointdescr":null,"partnerid":58,"paymenttype":0,"type":"Pack Machine"},{"name":"BEL085","street":"Armii Krajowej","buildingnumber":"14","postcode":"97-406","town":"Bełchatów","latitude":"51.35211","longitude":"19.37811","paymentavailable":false,"operatinghours":"Paczkomat: 24/7","locationdescription":"Stacja LPG Jurbet w pobliżu stacji Shell","paymentpointdescr":null,"partnerid":59,"paymenttype":0,"type":"Pack Machine"},{"name":"BIA313","street":"Wrocławska","buildingnumber":"20","postcode":"15-644","town":"Białystok","latitude":"53.12383","longitude":"23.09861","paymentavailable":false,"operatinghours":"Paczkomat: 24/7","locationdescription":"Przy wejściu głównym do Galerii ZIELONE WZGÓRZE","paymentpointdescr":null,"partnerid":0,"paymenttype":0,"type":"Pack Machine"},{"name":"BIA430","street":"Poleska","buildingnumber":"11","postcode":"15-572","town":"Białystok","latitude":"53.14235","longitude":"23.16484","paymentavailable":true,"operatinghours":"Paczkomat:24/7","locationdescription":"Stacja paliw STATOIL","paymentpointdescr":"Płatność kartą wyłącznie w paczkomacie. Dostępność: 24/7","partnerid":0,"paymenttype":2,"type":"Pack Machine"},{"name":"BIA432","street":"Jana Pawła II","buildingnumber":"56","postcode":"15-703","town":"Białystok","latitude":"53.13836","longitude":"23.11896","paymentavailable":true,"operatinghours":"Paczkomat:24/7","locationdescription":"Stacja paliw STATOIL","paymentpointdescr":"Płatność kartą wyłącznie w paczkomacie. Dostępność: 24/7","partnerid":0,"paymenttype":2,"type":"Pack Machine"},{"name":"BIA433","street":"Czesława Miłosza","buildingnumber":"2","postcode":"15-265","town":"Białystok","latitude":"53.12364","longitude":"23.17859","paymentavailable":false,"operatinghours":"Paczkomat:24/7","locationdescription":"C.H. Galeria BIAŁA","paymentpointdescr":"Płatność kartą wyłącznie w paczkomacie. Dostępność: 24/7","partnerid":0,"paymenttype":0,"type":"Pack Machine"},{"name":"BIA555","street":"Zwierzyniecka","buildingnumber":"19","postcode":"15-312","town":"Białystok","latitude":"53.1197","longitude":"23.15355","paymentavailable":false,"operatinghours":"Paczkomat: 24/7","locationdescription":"Przy Sklepie Społem Białystok - Mikrus","paymentpointdescr":null,"partnerid":0,"paymenttype":0,"type":"Pack Machine"},{"name":"BIA556","street":"Słonimska","buildingnumber":"2/1","postcode":"15-028","town":"Białystok","latitude":"53.13396","longitude":"23.17395","paymentavailable":false,"operatinghours":null,"locationdescription":"Przy Sklepie Społem Białystok - Bojary","paymentpointdescr":null,"partnerid":0,"paymenttype":0,"type":"Pack Machine"},{"name":"BIA821","street":"27-go Lipca","buildingnumber":"2","postcode":"15-178","town":"Białystok","latitude":"53.1479","longitude":"23.18463","paymentavailable":false,"operatinghours":null,"locationdescription":"przy markecie Tesco","paymentpointdescr":null,"partnerid":0,"paymenttype":0,"type":"Pack Machine"},{"name":"BIA896","street":"Św Rocha","buildingnumber":null,"postcode":"15-879","town":"Białystok","latitude":"53.13361","longitude":"23.14275","paymentavailable":false,"operatinghours":null,"locationdescription":"Przy Centrum Handlowym 'Park'","paymentpointdescr":null,"partnerid":0,"paymenttype":0,"type":"Pack Machine"},{"name":"BIA902","street":"gen. J. Bema","buildingnumber":"89/2","postcode":"15-370","town":"Białystok","latitude":"53.12122","longitude":"23.13961","paymentavailable":false,"operatinghours":null,"locationdescription":"przy sklepie Społem Białystok – Bazar","paymentpointdescr":null,"partnerid":0,"paymenttype":0,"type":"Pack Machine"},{"name":"BIA930","street":"Mieszka I","buildingnumber":"6","postcode":"15-054","town":"Białystok","latitude":"53.13489","longitude":"23.18777","paymentavailable":false,"operatinghours":null,"locationdescription":"przy sklepie Społem Białystok - Mieszko","paymentpointdescr":null,"partnerid":0,"paymenttype":0,"type":"Pack Machine"},{"name":"BIL816","street":"Generała Komorowskiego","buildingnumber":"18","postcode":"23-400","town":"Biłgoraj","latitude":"50.52826","longitude":"22.72633","paymentavailable":false,"operatinghours":"Paczkomaty: 24/7","locationdescription":"Przy markecie TESCO","paymentpointdescr":null,"partnerid":0,"paymenttype":0,"type":"Pack Machine"},{"name":"BOC024","street":"Wojska Polskiego","buildingnumber":"6","postcode":"32-700","town":"Bochnia","latitude":"49.97568","longitude":"20.43121","paymentavailable":true,"operatinghours":"Paczkomat: 24/7","locationdescription":"Przy sklepie SPAR","paymentpointdescr":"Płatność kartą wyłącznie w paczkomacie. Dostępność: 24/7","partnerid":48,"paymenttype":2,"type":"Pack Machine"},{"name":"BOL388","street":"10 marca","buildingnumber":"1","postcode":"59-700","town":"Bolesławiec","latitude":"51.26414","longitude":"15.5526","paymentavailable":true,"operatinghours":"Paczkomat: 24/7","locationdescription":"Przy markecie CARREFOUR","paymentpointdescr":"Płatność kartą wyłącznie w paczkomacie. Dostępność: 24/7<br />","partnerid":0,"paymenttype":2,"type":"Pack Machine"},{"name":"BPO145","street":"Sidorska","buildingnumber":"105","postcode":"21-500","town":"Biała Podlaska","latitude":"52.02317","longitude":"23.16544","paymentavailable":true,"operatinghours":"Paczkomat: 24/7","locationdescription":"Stacja paliw LOTOS na 'Biawenie'","paymentpointdescr":"Płatności można dokonać w stacji paliw Lotos przy której jest zlokalizowany Paczkomat. Dostępność: 24/7","partnerid":1,"paymenttype":1,"type":"Pack Machine"},{"name":"BRD924","street":"Podgórna","buildingnumber":"65","postcode":"87-300","town":"Brodnica","latitude":"53.23898","longitude":"19.39392","paymentavailable":true,"operatinghours":null,"locationdescription":"Przy markecie Intermarche","paymentpointdescr":"Płatność kartą wyłącznie w paczkomacie. Dostępność: 24/7","partnerid":0,"paymenttype":2,"type":"Pack Machine"},{"name":"BRZ231","street":"Partyzantów","buildingnumber":"3","postcode":"49-300","town":"Brzeg","latitude":"50.86392","longitude":"17.46016","paymentavailable":true,"operatinghours":null,"locationdescription":"Parking przy sklepie INTERMARCHE, obok basenu","paymentpointdescr":"Płatność kartą wyłącznie w paczkomacie. Dostępność: 24/7","partnerid":0,"paymenttype":2,"type":"Pack Machine"},{"name":"BYD301","street":"Wojska Polskiego","buildingnumber":"16","postcode":"85-824","town":"Bydgoszcz","latitude":"53.1072","longitude":"18.03825","paymentavailable":false,"operatinghours":"Paczkomat: 24/7","locationdescription":"Przy markecie KAUFLAND","paymentpointdescr":"Płatność kartą wyłącznie w paczkomacie. Dostępność: 24/7<br />","partnerid":0,"paymenttype":0,"type":"Pack Machine"},{"name":"BYD325","street":"Wyzwolenia","buildingnumber":"66","postcode":"85-790","town":"Bydgoszcz","latitude":"53.15929","longitude":"18.16687","paymentavailable":true,"operatinghours":"Paczkomat: 24/7","locationdescription":"Przy markecie CARREFOUR, z tyłu sklepu","paymentpointdescr":"Płatność kartą wyłącznie w paczkomacie. Dostępność: 24/7","partnerid":0,"paymenttype":2,"type":"Pack Machine"},{"name":"BYD341","street":"Ludwika Solskiego","buildingnumber":"5","postcode":"85-125","town":"Bydgoszcz","latitude":"53.11442","longitude":"18.00334","paymentavailable":true,"operatinghours":"Paczkomat: 24/7","locationdescription":"Przy markecie KAUFLAND","paymentpointdescr":"Płatność kartą wyłącznie w paczkomacie. Dostępność 24/7","partnerid":0,"paymenttype":2,"type":"Pack Machine"},{"name":"BYD407","street":"Toruńska","buildingnumber":"101","postcode":"85-817","town":"Bydgoszcz","latitude":"53.11805","longitude":"18.03646","paymentavailable":true,"operatinghours":"Paczkomat: 24/7","locationdescription":"Przy markecie Tesco","paymentpointdescr":"Płatność kartą wyłącznie w paczkomacie. Dostępność: 24/7","partnerid":0,"paymenttype":2,"type":"Pack Machine"},{"name":"BYD460","street":"Fordońska","buildingnumber":"48/50","postcode":"85-719","town":"Bydgoszcz","latitude":"53.12006","longitude":"18.05084","paymentavailable":true,"operatinghours":"Paczkomat:24/7","locationdescription":"Przy stacji paliw BP","paymentpointdescr":"Płatność kartą wyłącznie w paczkomacie. Dostępność: 24/7","partnerid":0,"paymenttype":2,"type":"Pack Machine"},{"name":"BYD899","street":"al. Jana Pawła II","buildingnumber":"115","postcode":"85-140","town":"Bydgoszcz","latitude":"53.10749","longitude":"18.014","paymentavailable":true,"operatinghours":null,"locationdescription":"przy markecie Carrefour Market","paymentpointdescr":"Płatność kartą wyłącznie w paczkomacie. Dostępność: 24/7","partnerid":0,"paymenttype":2,"type":"Pack Machine"},{"name":"BYD906","street":"Twardzickiego","buildingnumber":"1","postcode":"85-791","town":"Bydgoszcz","latitude":"53.15233","longitude":"18.12363","paymentavailable":true,"operatinghours":null,"locationdescription":"Przy markecie Polomarket","paymentpointdescr":"Płatność kartą wyłącznie w paczkomacie. Dostępność: 24/7","partnerid":0,"paymenttype":2,"type":"Pack Machine"},{"name":"BYD914","street":"Kolbego","buildingnumber":"38","postcode":"85-433","town":"Bydgoszcz","latitude":"53.15381","longitude":"17.91795","paymentavailable":true,"operatinghours":null,"locationdescription":"przy markecie Polomarket","paymentpointdescr":"Płatność kartą wyłącznie w paczkomacie. Dostępność: 24/7","partnerid":0,"paymenttype":2,"type":"Pack Machine"},{"name":"BYD918","street":"Nad Torem","buildingnumber":"66","postcode":"85-409","town":"Bydgoszcz","latitude":"53.1446","longitude":"17.96235","paymentavailable":true,"operatinghours":null,"locationdescription":"przy markecie Polomarket","paymentpointdescr":"Płatność kartą wyłącznie w paczkomacie. Dostępność: 24/7","partnerid":0,"paymenttype":2,"type":"Pack Machine"},{"name":"BYD922","street":"Magnuszewska","buildingnumber":"8","postcode":"85-861","town":"Bydgoszcz","latitude":"53.1054","longitude":"18.02845","paymentavailable":true,"operatinghours":null,"locationdescription":"Przy markecie Intermarche","paymentpointdescr":"Płatność kartą wyłącznie w paczkomacie. Dostępność: 24/7","partnerid":0,"paymenttype":2,"type":"Pack Machine"},{"name":"BYT227","street":"Chorzowska","buildingnumber":"86","postcode":"41-910","town":"Bytom","latitude":"50.32115","longitude":"18.94239","paymentavailable":true,"operatinghours":"Paczkomat: 24/7","locationdescription":"Przy markecie TESCO","paymentpointdescr":"Płatność kartą wyłącznie w paczkomacie. Dostępność: 24/7","partnerid":0,"paymenttype":2,"type":"Pack Machine"},{"name":"BYT228","street":"Reptowska","buildingnumber":"74","postcode":"41-923","town":"Bytom","latitude":"50.37144","longitude":"18.85273","paymentavailable":false,"operatinghours":"Paczkomat: 24/7","locationdescription":"Parking strzeżony, na terenie osiedla mieszkaniowego","paymentpointdescr":null,"partnerid":0,"paymenttype":0,"type":"Pack Machine"},{"name":"BYT229","street":"Stanisława Witczaka","buildingnumber":" 12","postcode":"41-902","town":"Bytom","latitude":"50.34626","longitude":"18.93014","paymentavailable":true,"operatinghours":"Paczkomat: 24/7","locationdescription":"Parking strzeżony w pobliżu Centrum Nurkowego","paymentpointdescr":"Płatność kartą wyłącznie w paczkomacie. Dostępność: 24/7","partnerid":0,"paymenttype":2,"type":"Pack Machine"},{"name":"BYT425","street":"Jana N. Jeziorańskiego","buildingnumber":"25","postcode":"41-923","town":"Bytom","latitude":"50.34617","longitude":"18.8492","paymentavailable":true,"operatinghours":"Paczkomat: 24/7","locationdescription":"Przy Centrum Handlowym Plejada","paymentpointdescr":"Płatność kartą wyłącznie w paczkomacie. Dostępność: 24/7","partnerid":0,"paymenttype":2,"type":"Pack Machine"},{"name":"BYT427","street":"Strzelców Bytomskich","buildingnumber":"96","postcode":"41-931","town":"Bytom","latitude":"50.37968","longitude":"18.89145","paymentavailable":true,"operatinghours":"Paczkomat: 24/7","locationdescription":"Przy markecie M1","paymentpointdescr":"Płatność kartą wyłącznie w paczkomacie. Dostępność: 24/7","partnerid":0,"paymenttype":2,"type":"Pack Machine"},{"name":"BYT817","street":"Zabrzańska","buildingnumber":"31","postcode":"41-907","town":"Bytom","latitude":"50.33752","longitude":"18.90008","paymentavailable":false,"operatinghours":"Paczkomat: 24/7","locationdescription":"Przy markecie Intermarche","paymentpointdescr":null,"partnerid":0,"paymenttype":0,"type":"Pack Machine"},{"name":"CHC997","street":"Świętopełka","buildingnumber":"16","postcode":"89-600","town":"Chojnice","latitude":"53.6911","longitude":"17.57111","paymentavailable":true,"operatinghours":null,"locationdescription":"Polomarket","paymentpointdescr":"Płatność kartą wyłącznie w paczkomacie. Dostępność: 24/7","partnerid":0,"paymenttype":2,"type":"Pack Machine"},{"name":"CHE827","street":"Lwowska","buildingnumber":"24","postcode":"22-100","town":"Chełm","latitude":"51.12605","longitude":"23.46739","paymentavailable":false,"operatinghours":"Paczkomat: 24/7","locationdescription":"Przy markecie TESCO","paymentpointdescr":null,"partnerid":0,"paymenttype":0,"type":"Pack Machine"},{"name":"CHO096","street":"Kościuszki","buildingnumber":"9","postcode":"41-500","town":"Chorzów","latitude":"50.29929","longitude":"18.95851","paymentavailable":true,"operatinghours":"Paczkomat: 24/7 ","locationdescription":"Przy markecie KAUFLAND","paymentpointdescr":"Płatność kartą wyłącznie w paczkomacie. Dostępność: 24/7<br />","partnerid":50,"paymenttype":2,"type":"Pack Machine"},{"name":"CHO217","street":"Ks.J.Gałeczki","buildingnumber":"46","postcode":"41-500","town":"Chorzów","latitude":"50.28254","longitude":"18.95941","paymentavailable":true,"operatinghours":"Paczkomat: 24/7","locationdescription":"Stacja paliw LOTOS","paymentpointdescr":"Płatność kartą wyłącznie w paczkomacie. Dostępność: 24/7","partnerid":0,"paymenttype":2,"type":"Pack Machine"},{"name":"CHO531","street":"Żołnierzy Września","buildingnumber":"22","postcode":"41-500","town":"Chorzów","latitude":"50.29642","longitude":"18.93545","paymentavailable":true,"operatinghours":"Paczkomat: 24/7","locationdescription":"Przy markecie E. Leclerc","paymentpointdescr":"Płatność kartą wyłącznie w paczkomacie. Dostępność: 24/7","partnerid":0,"paymenttype":2,"type":"Pack Machine"},{"name":"CHO822","street":"Stefana Batorego","buildingnumber":"21","postcode":"41-506","town":"Chorzów","latitude":"50.27306","longitude":"18.93938","paymentavailable":true,"operatinghours":"Paczkomat:24/7","locationdescription":"Przy markecie Tesco","paymentpointdescr":"Płatność kartą wyłącznie w paczkomacie. Dostępność: 24/7","partnerid":0,"paymenttype":2,"type":"Pack Machine"},{"name":"CHO842","street":"Parkowa","buildingnumber":"20","postcode":"41-500","town":"Chorzów","latitude":"50.29064","longitude":"18.96659","paymentavailable":true,"operatinghours":null,"locationdescription":"Przy markecie Carrefour","paymentpointdescr":"Płatność kartą wyłącznie w paczkomacie. Dostępność: 24/7","partnerid":0,"paymenttype":2,"type":"Pack Machine"},{"name":"CHR125","street":"Szpitalna","buildingnumber":"15","postcode":"32-500","town":"Chrzanów","latitude":"50.14173","longitude":"19.41493","paymentavailable":false,"operatinghours":"Paczkomat: 24/7","locationdescription":"Przy markecie Tesco","paymentpointdescr":null,"partnerid":60,"paymenttype":0,"type":"Pack Machine"},{"name":"CIE347","street":"Armii Krajowej","buildingnumber":"24","postcode":"06-400","town":"Ciechanów","latitude":"52.87551","longitude":"20.62853","paymentavailable":true,"operatinghours":"Paczkomat: 24/7","locationdescription":"Przy markecie CARREFOUR","paymentpointdescr":"Płatność kartą wyłącznie w paczkomacie. Dostępność: 24/7","partnerid":0,"paymenttype":2,"type":"Pack Machine"},{"name":"CLD426","street":"Będzińska","buildingnumber":"80","postcode":"41-250","town":"Czeladź","latitude":"50.32115","longitude":"19.10446","paymentavailable":false,"operatinghours":"Paczkomat: 24/7","locationdescription":"Przy markecie M1 od strony ul. Będzińskiej","paymentpointdescr":null,"partnerid":0,"paymenttype":0,"type":"Pack Machine"},{"name":"CLS910","street":"Rynek","buildingnumber":"1","postcode":"44-238","town":"Czerwionka-Leszczyny","latitude":"50.04598","longitude":"18.69499","paymentavailable":false,"operatinghours":null,"locationdescription":"Przy sklepie PSS Społem","paymentpointdescr":null,"partnerid":0,"paymenttype":0,"type":"Pack Machine"},{"name":"CSZ081","street":"Liburnia","buildingnumber":"28","postcode":"43-400","town":"Cieszyn","latitude":"49.7525","longitude":"18.63753","paymentavailable":true,"operatinghours":"Paczkomat: 24/7","locationdescription":"Market Kaufland","paymentpointdescr":"Płatność kartą wyłącznie w paczkomacie. Dostępność: 24/7","partnerid":0,"paymenttype":2,"type":"Pack Machine"},{"name":"CZE322","street":"Jasnogórska","buildingnumber":"38","postcode":"42-200","town":"Częstochowa","latitude":"50.81571","longitude":"19.11509","paymentavailable":true,"operatinghours":"Paczkomat: 24/7","locationdescription":"Parking strzeżony, przy bramie wjazdowej","paymentpointdescr":"Płatność kartą wyłącznie w paczkomacie. Dostępność: 24/7<br />","partnerid":0,"paymenttype":2,"type":"Pack Machine"},{"name":"CZE389","street":"Kisielewskiego","buildingnumber":"8","postcode":"42-200","town":"Częstochowa","latitude":"50.83674","longitude":"19.11481","paymentavailable":true,"operatinghours":"Paczkomat 24/7","locationdescription":"Przy markecie M1","paymentpointdescr":"Płatność kartą wyłącznie w paczkomacie. Dostępność: 24/7","partnerid":0,"paymenttype":2,"type":"Pack Machine"},{"name":"CZE400","street":"Drogowców","buildingnumber":"43","postcode":"42-200","town":"Częstochowa","latitude":"50.82388","longitude":"19.14306","paymentavailable":false,"operatinghours":"Paczkomat: 24/7","locationdescription":"Przy markecie Tesco","paymentpointdescr":null,"partnerid":0,"paymenttype":0,"type":"Pack Machine"},{"name":"CZE527","street":"Brzozowa","buildingnumber":"2","postcode":"42-216","town":"Częstochowa","latitude":"50.7821","longitude":"19.14334","paymentavailable":true,"operatinghours":"Paczkomat: 24/7","locationdescription":"Centrum Handlowe Jagiellończycy przy wejściu","paymentpointdescr":"Płatność kartą wyłącznie w paczkomacie. Dostępność: 24/7","partnerid":0,"paymenttype":2,"type":"Pack Machine"},{"name":"DEB023","street":"Głowackiego","buildingnumber":"20","postcode":"39-200","town":"Dębica","latitude":"50.05489","longitude":"21.4114","paymentavailable":true,"operatinghours":"Paczkomat: 24/7","locationdescription":"Stacja paliw LOTOS przy dworcu PKP i PKS","paymentpointdescr":"Płatności można dokonać w stacji paliw Lotos przy której jest zlokalizowany Paczkomat. Dostępność: 24/7","partnerid":1,"paymenttype":1,"type":"Pack Machine"},{"name":"DEB108","street":"Gawrzyłowska","buildingnumber":"8","postcode":"39-200","town":"Dębica","latitude":"50.0478","longitude":"21.4174","paymentavailable":false,"operatinghours":"Paczkomat: 24/7","locationdescription":"Stacja paliw BŁYSK przy skrzyżowaniu z ul. Strażacką","paymentpointdescr":null,"partnerid":44,"paymenttype":0,"type":"Pack Machine"},{"name":"DEB292","street":"Rzeszowska","buildingnumber":"133","postcode":"39-200","town":"Dębica","latitude":"50.0553","longitude":"21.43231","paymentavailable":true,"operatinghours":"Paczkomat: 24/7","locationdescription":"Przy wjeździe na stację obsługi PKS ","paymentpointdescr":"Płatności gotówką można dokonywać w biurowcu obok stacji PKS w godzinach: Pn-Pt 07:00 - 20:00, Sb 07:00 - 13:00.","partnerid":0,"paymenttype":1,"type":"Pack Machine"},{"name":"DEB293","street":"Piaski","buildingnumber":"30","postcode":"39-200","town":"Dębica","latitude":"50.04901","longitude":"21.4038","paymentavailable":true,"operatinghours":"Paczkomat: 24/7","locationdescription":"Przy sklepie Spożywczo-Przemysłowo-Chemicznym","paymentpointdescr":"Płatności można dokonać w sklepie Spożywczo-Przemysłowo-Chemicznym przy którym zlokalizowany jest paczkomat w godzianch: Pn-Pt 5:30 – 20:00, Sb 5:30-19:00, Nd 8:00 – 18:00","partnerid":0,"paymenttype":3,"type":"Pack Machine"},{"name":"DGO415","street":"Gustawa Morcinka","buildingnumber":"2","postcode":"41-300","town":"Dąbrowa Górnicza","latitude":"50.33271","longitude":"19.21435","paymentavailable":true,"operatinghours":null,"locationdescription":"Kaufland","paymentpointdescr":"Płatność kartą wyłącznie w paczkomacie. Dostępność: 24/7","partnerid":0,"paymenttype":2,"type":"Pack Machine"},{"name":"DGO419","street":"Józefa Piłsudskiego","buildingnumber":"87","postcode":"41-303","town":"Dąbrowa Górnicza","latitude":"50.34157","longitude":"19.24174","paymentavailable":true,"operatinghours":null,"locationdescription":"Intermarche","paymentpointdescr":"Płatność kartą wyłącznie w paczkomacie. Dostępność: 24/7<br />","partnerid":0,"paymenttype":2,"type":"Pack Machine"},{"name":"DGO439","street":"Katowicka","buildingnumber":"1","postcode":"41-300","town":"Dąbrowa Górnicza","latitude":"50.31799","longitude":"19.21198","paymentavailable":true,"operatinghours":"Paczkomat:24/7","locationdescription":"Przy markecie Real Dąbrowa Górnicza","paymentpointdescr":"Płatność kartą wyłącznie w paczkomacie. Dostępność: 24/7","partnerid":0,"paymenttype":2,"type":"Pack Machine"},{"name":"DGO554","street":"Królowej Jadwigi","buildingnumber":"52","postcode":"41-300","town":"Dąbrowa Górnicza","latitude":"50.3236","longitude":"19.2","paymentavailable":true,"operatinghours":null,"locationdescription":"Przy stacji paliw Lotos","paymentpointdescr":"Płatność kartą wyłącznie w paczkomacie. Dostępność: 24/7","partnerid":0,"paymenttype":2,"type":"Pack Machine"},{"name":"DGO838","street":"Legionów Polskich","buildingnumber":"147a","postcode":"41-300","town":"Dąbrowa Górnicza","latitude":"50.32023","longitude":"19.17059","paymentavailable":true,"operatinghours":"Paczkomat:24/7","locationdescription":"Przy markecie Tesco","paymentpointdescr":"Płatność kartą wyłącznie w paczkomacie. Dostępność: 24/7","partnerid":0,"paymenttype":2,"type":"Pack Machine"},{"name":"DZI192","street":"Akacjowa","buildingnumber":"2","postcode":"58-200","town":"Dzierżoniów","latitude":"50.73871","longitude":"16.64434","paymentavailable":false,"operatinghours":"Paczkomat: 24/7","locationdescription":"Parking, po lewej stronie wejścia do INTERMARCHE","paymentpointdescr":null,"partnerid":0,"paymenttype":0,"type":"Pack Machine"},{"name":"ELB161","street":"Szarych Szeregów","buildingnumber":"33","postcode":"82-300","town":"Elbląg","latitude":"54.18906","longitude":"19.39186","paymentavailable":true,"operatinghours":"Paczkomat: 24/7","locationdescription":"Parking strzeżony - Usługi Motoryzacyjne od A do Z","paymentpointdescr":"Płatności gotówką można dokonać u naszego partnera na terenie Parkingu, przy którym zlokalizowany jest paczkomat.<br />Płatność kartą wyłącznie w paczkomacie. Dostępność: 24/7","partnerid":0,"paymenttype":3,"type":"Pack Machine"},{"name":"ELB163","street":"Zagonowa","buildingnumber":"12","postcode":"82-300","town":"Elbląg","latitude":"54.15271","longitude":"19.39965","paymentavailable":true,"operatinghours":"Paczkomat: 24/7","locationdescription":"Stacja Auto-Gaz w pobliżu stacji paliw Neste","paymentpointdescr":"Płatność kartą wyłącznie w paczkomacie. Dostępność: 24/7","partnerid":0,"paymenttype":2,"type":"Pack Machine"},{"name":"ELB164","street":"Teatralna","buildingnumber":"1","postcode":"82-300","town":"Elbląg","latitude":"54.16559","longitude":"19.40021","paymentavailable":false,"operatinghours":"Paczkomat: 24/7","locationdescription":"Stacja paliw LOTOS w pobliżu supermarketu Kaufland","paymentpointdescr":null,"partnerid":0,"paymenttype":0,"type":"Pack Machine"},{"name":"ELB165","street":"Grunwaldzka","buildingnumber":"4","postcode":"82-300","town":"Elbląg","latitude":"54.15232","longitude":"19.41533","paymentavailable":true,"operatinghours":"Paczkomat: 24/7","locationdescription":"Stacja paliw LOTOS w pobliżu restauracji McDonald's","paymentpointdescr":"Płatności gotówką można dokonać w kasie u naszego partnera na terenie stacji, przy której zlokalizowany jest paczkomat. Dostępność: 24/7<br />Płatność kartą wyłącznie w paczkomacie. Dostępność: 24/7","partnerid":0,"paymenttype":3,"type":"Pack Machine"},{"name":"ELB166","street":"Królewiecka","buildingnumber":"144","postcode":"82-300","town":"Elbląg","latitude":"54.17824","longitude":"19.42548","paymentavailable":true,"operatinghours":"Paczkomat: 24/7","locationdescription":"Stacja paliw GREGOR w pobliżu Szpitala Wojewódzkiego","paymentpointdescr":"Płatności gotówką można dokonać w kasie u naszego partnera na terenie stacji, przy której zlokalizowany jest paczkomat w godzinach: Pn-Pt 6:00-20:00, Sb 07:00-18:00<br />Płatność kartą wyłącznie w paczkomacie. Dostępność: 24/7","partnerid":0,"paymenttype":3,"type":"Pack Machine"},{"name":"ELK151","street":"Suwalska","buildingnumber":"40","postcode":"19-300","town":"Ełk","latitude":"53.82947","longitude":"22.37228","paymentavailable":false,"operatinghours":"Paczkomat: 24/7","locationdescription":"Stacja paliw BP","paymentpointdescr":null,"partnerid":0,"paymenttype":0,"type":"Pack Machine"},{"name":"ELK152","street":"11 Listopada","buildingnumber":"52","postcode":"19-300","town":"Ełk","latitude":"53.833","longitude":"22.32697","paymentavailable":true,"operatinghours":"Paczkomat: 24/7","locationdescription":"Stacja SETON przy zjeździe z Ełku w stronę Olsztyna","paymentpointdescr":"Płatność kartą wyłącznie w paczkomacie. Dostępność: 24/7","partnerid":0,"paymenttype":2,"type":"Pack Machine"},{"name":"GDA008","street":"Kartuska","buildingnumber":"383","postcode":"80-125","town":"Gdańsk","latitude":"54.34425","longitude":"18.53642","paymentavailable":true,"operatinghours":"Paczkomat: 24/7  ","locationdescription":"Stacja paliw LOTOS niedaleko marketu Auchan","paymentpointdescr":"Płatności gotówką można dokonać w stacji paliw Lotos, przy której zlokalizowany jest paczkomat. Dostępność: 24/7","partnerid":1,"paymenttype":1,"type":"Pack Machine"},{"name":"GDA009","street":"Jana Pawła II","buildingnumber":"25","postcode":"80-462","town":"Gdańsk","latitude":"54.40578","longitude":"18.61343","paymentavailable":false,"operatinghours":"Paczkomat: 24/7","locationdescription":"Na tyłach stacji paliw LOTOS obok dyskontu Biedronka","paymentpointdescr":"Płatności gotówką można dokonać w stacji paliw Lotos, przy której zlokalizowany jest paczkomat. Dostępność: 24/7","partnerid":1,"paymenttype":0,"type":"Pack Machine"},{"name":"GDA020","street":"Cygańska Góra","buildingnumber":"3 F","postcode":"80-171","town":"Gdańsk","latitude":"54.35748","longitude":"18.61889","paymentavailable":false,"operatinghours":"Paczkomat: 24/7","locationdescription":"Przy markecie Carrefour","paymentpointdescr":null,"partnerid":1,"paymenttype":0,"type":"Pack Machine"},{"name":"GDA025","street":"Kołobrzeska","buildingnumber":"41","postcode":"80-391","town":"Gdańsk","latitude":"54.40362","longitude":"18.5873","paymentavailable":false,"operatinghours":"Paczkomat: 24/7 ","locationdescription":"Stacja paliw LOTOS obok Alfa Centrum","paymentpointdescr":"Płatności gotówką można dokonać na terenie stacji, przy której zlokalizowany jest paczkomat. Dostępność: 24/7","partnerid":1,"paymenttype":0,"type":"Pack Machine"},{"name":"GDA029","street":"Elbląska","buildingnumber":"87","postcode":"80-718","town":"Gdańsk","latitude":"54.34915","longitude":"18.68167","paymentavailable":false,"operatinghours":"Paczkomat: 24/7","locationdescription":"Stacja paliw LOTOS naprzeciwko stacji ORLEN","paymentpointdescr":null,"partnerid":1,"paymenttype":0,"type":"Pack Machine"},{"name":"GDA037","street":"Hallera","buildingnumber":"136","postcode":"80-416","town":"Gdańsk","latitude":"54.39294","longitude":"18.62174","paymentavailable":false,"operatinghours":"Paczkomat: 24/7","locationdescription":"Stacja paliw LOTOS w pobliżu salonu FIAT","paymentpointdescr":"Płatności gotówką można dokonać w stacji paliw Lotos, przy której zlokalizowany jest paczkomat. Dostępność: 24/7","partnerid":1,"paymenttype":0,"type":"Pack Machine"},{"name":"GDA054","street":"Trakt Św. Wojciecha","buildingnumber":"115","postcode":"80-718","town":"Gdańsk","latitude":"54.32676","longitude":"18.63378","paymentavailable":false,"operatinghours":"Paczkomat: 24/7","locationdescription":"Stacja paliw LOTOS","paymentpointdescr":null,"partnerid":1,"paymenttype":0,"type":"Pack Machine"},{"name":"GDA409","street":"Cienista","buildingnumber":"30","postcode":"80-180","town":"Gdańsk","latitude":"54.33712","longitude":"18.62092","paymentavailable":true,"operatinghours":"Paczkomat: 24/7","locationdescription":"Przy markecie Tesco","paymentpointdescr":"Płatność kartą wyłącznie w paczkomacie. Dostępność: 24/7","partnerid":0,"paymenttype":2,"type":"Pack Machine"},{"name":"GDA437","street":"Spacerowa","buildingnumber":"48","postcode":"80-299","town":"Gdańsk","latitude":"54.42596","longitude":"18.49054","paymentavailable":true,"operatinghours":"Paczkomat:24/7","locationdescription":"C.H. Osowa Gdańsk przy głównym wejściu","paymentpointdescr":"Płatność kartą wyłącznie w paczkomacie. Dostępność: 24/7","partnerid":0,"paymenttype":2,"type":"Pack Machine"},{"name":"GDA448","street":"Rogalińska","buildingnumber":"1","postcode":"80-809","town":"Gdańsk","latitude":"54.3297","longitude":"18.60039","paymentavailable":false,"operatinghours":"Paczkomat:24/7","locationdescription":"Przy markecie Carrefour","paymentpointdescr":"Płatność kartą wyłącznie w paczkomacie. Dostępność: 24/7","partnerid":0,"paymenttype":0,"type":"Pack Machine"},{"name":"GDA455","street":"Obrońców Wybrzeża","buildingnumber":"1","postcode":"80-398","town":"Gdańsk","latitude":"54.40947","longitude":"18.59212","paymentavailable":true,"operatinghours":"Paczkomat: 24/7","locationdescription":"Galeria Przymorze","paymentpointdescr":"Płatność kartą wyłącznie w paczkomacie. Dostępność: 24/7","partnerid":0,"paymenttype":2,"type":"Pack Machine"},{"name":"GDA464","street":"Marynarki Polskiej","buildingnumber":"93","postcode":"80-868","town":"Gdańsk","latitude":"54.37854","longitude":"18.63367","paymentavailable":false,"operatinghours":"Paczkomat:24/7","locationdescription":"Statoil","paymentpointdescr":null,"partnerid":0,"paymenttype":0,"type":"Pack Machine"},{"name":"GDA836","street":"Schuberta","buildingnumber":"102a","postcode":"80-172","town":"Gdańsk","latitude":"54.35258","longitude":"18.59288","paymentavailable":false,"operatinghours":"Paczkomat: 24/7","locationdescription":"Przy markecie Carrefour","paymentpointdescr":null,"partnerid":0,"paymenttype":0,"type":"Pack Machine"},{"name":"GDA913","street":"Grunwaldzka","buildingnumber":"82","postcode":"80-244","town":"Gdańsk-Wrzeszcz","latitude":"54.37738","longitude":"18.60797","paymentavailable":true,"operatinghours":null,"locationdescription":"Przy Centrum Handlowym GCH Manhattan","paymentpointdescr":"Płatność kartą wyłącznie w paczkomacie. Dostępność: 24/7","partnerid":0,"paymenttype":2,"type":"Pack Machine"},{"name":"GDA915","street":"Kadmowa","buildingnumber":"1","postcode":"80-041","town":"Gdańsk","latitude":"54.3251","longitude":"18.61571","paymentavailable":true,"operatinghours":null,"locationdescription":"Polomarket","paymentpointdescr":"Płatność kartą wyłącznie w paczkomacie. Dostępność: 24/7","partnerid":0,"paymenttype":2,"type":"Pack Machine"},{"name":"GDA925","street":"Przywidzka","buildingnumber":"7/9","postcode":"80-174","town":"Gdańsk","latitude":"54.31989","longitude":"18.55421","paymentavailable":true,"operatinghours":null,"locationdescription":"Przy Centrum Handlowym Rental Park","paymentpointdescr":"Płatność kartą wyłącznie w paczkomacie. Dostępność: 24/7","partnerid":0,"paymenttype":2,"type":"Pack Machine"},{"name":"GDA970","street":"Grunwaldzka","buildingnumber":"615","postcode":"80-337","town":"Gdańsk","latitude":"54.42315","longitude":"18.56434","paymentavailable":true,"operatinghours":null,"locationdescription":"Przy markecie Intermarche","paymentpointdescr":"Płatność kartą wyłącznie w paczkomacie. Dostępność: 24/7","partnerid":0,"paymenttype":2,"type":"Pack Machine"},{"name":"GDY014","street":"Al. Zwycięstwa","buildingnumber":"165","postcode":"81-521","town":"Gdynia","latitude":"54.49665","longitude":"18.53895","paymentavailable":false,"operatinghours":"Paczkomat: 24/7","locationdescription":"Stacja paliw LOTOS naprzeciwko Parku Technologicznego","paymentpointdescr":null,"partnerid":1,"paymenttype":0,"type":"Pack Machine"},{"name":"GDY028","street":"Morska","buildingnumber":"290","postcode":"81-002","town":"Gdynia","latitude":"54.5505","longitude":"18.42789","paymentavailable":true,"operatinghours":"Paczkomat: 24/7","locationdescription":"Stacja paliw LUKOIL po prawej stronie w kierunku Rumi","paymentpointdescr":"Płatność kartą wyłącznie w paczkomacie. Dostępność: 24/7","partnerid":2,"paymenttype":2,"type":"Pack Machine"},{"name":"GDY381","street":"Unruga","buildingnumber":"5","postcode":"81-181","town":"Gdynia","latitude":"54.54929","longitude":"18.51297","paymentavailable":true,"operatinghours":"Paczkomat: 24/7","locationdescription":"Przy markecie KAUFLAND","paymentpointdescr":"Płatność kartą wyłącznie w paczkomacie. Dostępność 24/7","partnerid":0,"paymenttype":2,"type":"Pack Machine"},{"name":"GDY386","street":"Morska","buildingnumber":"82","postcode":"81-222","town":"Gdynia","latitude":"54.52939","longitude":"18.5038","paymentavailable":true,"operatinghours":"Paczkomat: 24/7","locationdescription":"Przy markecie KAUFLAND","paymentpointdescr":"Płatność kartą wyłącznie w paczkomacie. Dostępność: 24/7","partnerid":0,"paymenttype":2,"type":"Pack Machine"},{"name":"GDY394","street":"Kcyńska","buildingnumber":"27","postcode":"81-005","town":"Gdynia","latitude":"54.54021","longitude":"18.45102","paymentavailable":true,"operatinghours":"Paczkomat: 24/7","locationdescription":"Przy markecie TESCO","paymentpointdescr":"Płatność kartą wyłączenie w paczkomacie. Dostępność 24/7","partnerid":0,"paymenttype":2,"type":"Pack Machine"},{"name":"GDY395","street":"Nowowiczlińska","buildingnumber":"35","postcode":"81-577","town":"Gdynia","latitude":"54.47354","longitude":"18.47432","paymentavailable":true,"operatinghours":"Paczkomat: 24/7","locationdescription":"Przy markecie TESCO","paymentpointdescr":"Płatność kartą wyłączenie w paczkomacie. Dostępność 24/7","partnerid":0,"paymenttype":2,"type":"Pack Machine"},{"name":"GDY940","street":"Kazimierza Górskiego","buildingnumber":"2","postcode":"81-304","town":"Gdynia","latitude":"54.50054","longitude":"18.53248","paymentavailable":true,"operatinghours":null,"locationdescription":"Przy Centrum Handlowym CH Wzgórze","paymentpointdescr":"Płatność kartą wyłącznie w paczkomacie. Dostępność: 24/7","partnerid":0,"paymenttype":2,"type":"Pack Machine"},{"name":"GLI219","street":"Toszecka","buildingnumber":"100","postcode":"44-100","town":"Gliwice","latitude":"50.32127","longitude":"18.66403","paymentavailable":true,"operatinghours":"Paczkomat: 24/7","locationdescription":"Stacja paliw LOTOS w pobliżu marketu Tesco","paymentpointdescr":"Płatność kartą wyłącznie w paczkomacie. Dostępność: 24/7","partnerid":0,"paymenttype":2,"type":"Pack Machine"},{"name":"GLI232","street":"Żurawia","buildingnumber":"4","postcode":"44-100","town":"Gliwice","latitude":"50.27648","longitude":"18.65963","paymentavailable":true,"operatinghours":"Paczkomat: 24/7","locationdescription":"Parking strzeżony w pobliżu Biedronki","paymentpointdescr":"Płatność kartą wyłącznie w paczkomacie. Dostępność: 24/7","partnerid":0,"paymenttype":2,"type":"Pack Machine"},{"name":"GLI465","street":"Jarosława Dąbrowskiego","buildingnumber":"18","postcode":"44-100","town":"Gliwice","latitude":"50.29992","longitude":"18.68789","paymentavailable":true,"operatinghours":"Paczkomat:24/7","locationdescription":"Stacja BP","paymentpointdescr":"Płatność kartą wyłącznie w paczkomacie. Dostępność: 24/7","partnerid":0,"paymenttype":2,"type":"Pack Machine"},{"name":"GLI825","street":"Kochanowskiego","buildingnumber":"36","postcode":"44-100","town":"Gliwice","latitude":"50.28603","longitude":"18.66908","paymentavailable":true,"operatinghours":"Paczkomat: 24/7","locationdescription":"Przy markecie TESCO","paymentpointdescr":"Płatność kartą wyłącznie w paczkomacie. Dostępność: 24/7","partnerid":0,"paymenttype":2,"type":"Pack Machine"},{"name":"GLI828","street":"Wielicka","buildingnumber":"8","postcode":"44-103","town":"Gliwice","latitude":"50.28989","longitude":"18.72017","paymentavailable":true,"operatinghours":"Paczkomat: 24/7","locationdescription":"Przy markecie TESCO","paymentpointdescr":"Płatność kartą wyłącznie w paczkomacie. Dostępność: 24/7","partnerid":0,"paymenttype":2,"type":"Pack Machine"},{"name":"GLI942","street":"Żabińskiego","buildingnumber":"55","postcode":"44-121","town":"Gliwice","latitude":"50.31303","longitude":"18.61764","paymentavailable":true,"operatinghours":null,"locationdescription":"Przy markecie Simply ELEA market","paymentpointdescr":"Płatność kartą wyłącznie w paczkomacie. Dostępność: 24/7","partnerid":0,"paymenttype":2,"type":"Pack Machine"},{"name":"GLO195","street":"Piłsudskiego","buildingnumber":"15","postcode":"67-200","town":"Głogów","latitude":"51.65067","longitude":"16.0562","paymentavailable":true,"operatinghours":"Paczkomat: 24/7 ","locationdescription":"Przy markecie TESCO","paymentpointdescr":"Płatność kartą wyłącznie w paczkomacie. Dostępność: 24/7","partnerid":0,"paymenttype":2,"type":"Pack Machine"},{"name":"GLO196","street":"Kazimierza Sprawiedliwego","buildingnumber":"4","postcode":"67-200","town":"Głogów","latitude":"51.64589","longitude":"16.11037","paymentavailable":true,"operatinghours":"Paczkomat: 24/7","locationdescription":"Market INTERMARCHE, przy osiedlu Piastów","paymentpointdescr":"Płatność kartą wyłącznie w paczkomacie. Dostępność: 24/7","partnerid":0,"paymenttype":2,"type":"Pack Machine"},{"name":"GLO833","street":"Jedności Robotniczej","buildingnumber":"42","postcode":"67-200","town":"Głogów","latitude":"51.66704","longitude":"16.08289","paymentavailable":false,"operatinghours":null,"locationdescription":"Przy markecie TESCO","paymentpointdescr":null,"partnerid":0,"paymenttype":0,"type":"Pack Machine"},{"name":"GNI461","street":"Roosevelta","buildingnumber":"46","postcode":"62-200","town":"Gniezno","latitude":"52.53871","longitude":"17.61083","paymentavailable":true,"operatinghours":"Paczkomat:24/7","locationdescription":"Kaufland","paymentpointdescr":"Płatność kartą wyłącznie w paczkomacie. Dostępność: 24/7","partnerid":0,"paymenttype":2,"type":"Pack Machine"},{"name":"GNI948","street":"Żwirki I Wigury","buildingnumber":"8","postcode":"62-200","town":"Gniezno","latitude":"52.53934","longitude":"17.60714","paymentavailable":false,"operatinghours":null,"locationdescription":"na stacji Statoil","paymentpointdescr":null,"partnerid":0,"paymenttype":0,"type":"Pack Machine"},{"name":"GOL309","street":"Wolińska","buildingnumber":"11","postcode":"72-100","town":"Goleniów","latitude":"53.56962","longitude":"14.83173","paymentavailable":true,"operatinghours":"Paczkomat: 24/7","locationdescription":"Przy markecie KAUFLAND","paymentpointdescr":"Płatność kartą wyłącznie w paczkomacie. Dostępność: 24/7","partnerid":0,"paymenttype":2,"type":"Pack Machine"},{"name":"GRM345","street":"Królewska","buildingnumber":"86","postcode":"05-827","town":"Grodzisk Mazowiecki","latitude":"52.10562","longitude":"20.63639","paymentavailable":false,"operatinghours":"Paczkomat: 24/7","locationdescription":"Przy markecie CARREFOUR","paymentpointdescr":null,"partnerid":0,"paymenttype":0,"type":"Pack Machine"},{"name":"GRU340","street":"Piłsudskiego","buildingnumber":"10","postcode":"86-300","town":"Grudziądz","latitude":"53.48867","longitude":"18.75643","paymentavailable":true,"operatinghours":"Paczkomat: 24/7","locationdescription":"Przy markecie KAUFLAND","paymentpointdescr":"Płatność kartą wyłącznie w paczkomacie. Dostępność: 24/7","partnerid":0,"paymenttype":2,"type":"Pack Machine"},{"name":"GWI167","street":"Walczaka","buildingnumber":"21","postcode":"66-400","town":"Gorzów Wielkopolski","latitude":"52.74431","longitude":"15.25097","paymentavailable":false,"operatinghours":"Paczkomat: 24/7","locationdescription":"Na tyłach stacji paliw NEO, przy rondzie","paymentpointdescr":null,"partnerid":0,"paymenttype":0,"type":"Pack Machine"},{"name":"GWI168","street":"Budowlanych","buildingnumber":"20","postcode":"66-400","town":"Gorzów Wielkopolski","latitude":"52.72302","longitude":"15.22904","paymentavailable":false,"operatinghours":"Paczkomat: 24/7","locationdescription":"Supermarket GEZET, naprzeciwko stadionu żużlowego","paymentpointdescr":null,"partnerid":0,"paymenttype":0,"type":"Pack Machine"},{"name":"GWI169","street":"Górczyńska","buildingnumber":"19","postcode":"66-400","town":"Gorzów Wielkopolski","latitude":"52.75743","longitude":"15.25427","paymentavailable":true,"operatinghours":"Paczkomat: 24/7","locationdescription":"Przy markecie TESCO","paymentpointdescr":"Płatność kartą wyłącznie w paczkomacie. Dostępność 24/7","partnerid":0,"paymenttype":2,"type":"Pack Machine"},{"name":"GWI170","street":"Słowiańska","buildingnumber":"70","postcode":"66-400","town":"Gorzów Wielkopolski","latitude":"52.73923","longitude":"15.20026","paymentavailable":true,"operatinghours":"Paczkomat: 24/7","locationdescription":"Przy markecie TESCO","paymentpointdescr":"Płatność kartą wyłącznie w paczkomacie. Dostępność: 24/7","partnerid":0,"paymenttype":2,"type":"Pack Machine"},{"name":"GZC951","street":"Warszawska","buildingnumber":"2","postcode":"11-500","town":"Giżycko","latitude":"54.03561","longitude":"21.77185","paymentavailable":true,"operatinghours":"Paczkomat: 24/7","locationdescription":"Przy Galerii Handlowej Batory","paymentpointdescr":"Płatność kartą wyłącznie w paczkomacie. Dostępność: 24/7","partnerid":0,"paymenttype":2,"type":"Pack Machine"},{"name":"ILA444","street":"Kardynała Stefana Wyszyńskiego","buildingnumber":"33","postcode":"14-200","town":"Iława","latitude":"53.58869","longitude":"19.57143","paymentavailable":true,"operatinghours":"Paczkomat:24/7","locationdescription":"Przy markecie KAUFLAND","paymentpointdescr":"Płatność kartą wyłącznie w paczkomacie. Dostępność: 24/7<br />","partnerid":0,"paymenttype":2,"type":"Pack Machine"},{"name":"INO141","street":"Wojska Polskiego","buildingnumber":"10","postcode":"88-109","town":"Inowrocław","latitude":"52.7843","longitude":"18.24625","paymentavailable":false,"operatinghours":"Paczkomat: 24/7","locationdescription":"Przy markecie CARREFOUR","paymentpointdescr":null,"partnerid":0,"paymenttype":0,"type":"Pack Machine"},{"name":"JAN424","street":"Mszczonowska","buildingnumber":"3","postcode":"05-090","town":"Warszawa Janki","latitude":"52.13443","longitude":"20.89096","paymentavailable":true,"operatinghours":"Paczkomat: 24/7","locationdescription":"Centrum Handlowe Janki","paymentpointdescr":"Płatność kartą wyłącznie w paczkomacie. Dostępność: 24/7","partnerid":0,"paymenttype":2,"type":"Pack Machine"},{"name":"JAR249","street":"J. Słowackiego","buildingnumber":"34","postcode":"37-953","town":"Jarosław","latitude":"50.01099","longitude":"22.6775","paymentavailable":true,"operatinghours":"Paczkomat: 24/7","locationdescription":"Przy stacji PKP","paymentpointdescr":"Płatności gotówką można dokonać u naszego partnera, w sklepie z telefonami TEL-TECH, ul. Słowackiego 34A (Dworzec PKP - parter) w godzinach: Pn-Pt: 9-17, Sb: 9-13.","partnerid":0,"paymenttype":1,"type":"Pack Machine"},{"name":"JAR287","street":"Sanowa","buildingnumber":"11","postcode":"37-500","town":"Jarosław","latitude":"50.02076","longitude":"22.70082","paymentavailable":true,"operatinghours":"Paczkomat: 24/7","locationdescription":"Stacja paliw WATKEM, przy moście na Rzece San","paymentpointdescr":"Płatność kartą wyłącznie w paczkomacie. Dostępność: 24/7","partnerid":0,"paymenttype":2,"type":"Pack Machine"},{"name":"JAS289","street":"Jana Pawła II","buildingnumber":"26","postcode":"38-201","town":"Jasło","latitude":"49.74539","longitude":"21.48113","paymentavailable":true,"operatinghours":"Paczkomat: 24/7","locationdescription":"Przy sklepie MPM","paymentpointdescr":"Płatności gotówką można dokonać w sklepie MPM, przy którym stoi paczkomat w godzinach: Pn-Sb: 6-22, Nd: 9-21.","partnerid":0,"paymenttype":3,"type":"Pack Machine"},{"name":"JAW363","street":"Jana Matejki","buildingnumber":"27","postcode":"43-600","town":"Jaworzno","latitude":"50.19809","longitude":"19.26878","paymentavailable":true,"operatinghours":"Paczkomat: 24/7","locationdescription":"Przy markecie KAUFLAND","paymentpointdescr":"Płatność kartą wyłącznie w paczkomacie. Dostępność: 24/7","partnerid":0,"paymenttype":2,"type":"Pack Machine"},{"name":"JAW854","street":"Wojska Polskiego","buildingnumber":"2d","postcode":"43-603","town":"Jaworzno","latitude":"50.22264","longitude":"19.2263","paymentavailable":true,"operatinghours":null,"locationdescription":"Prz Markecie Carrefour","paymentpointdescr":"Płatność kartą wyłącznie w paczkomacie. Dostępność: 24/7","partnerid":0,"paymenttype":2,"type":"Pack Machine"},{"name":"JAW934","street":"Al. Marszałka Józefa Piłsudskiego","buildingnumber":"55","postcode":"43-600","town":"Jaworzno","latitude":"50.21264","longitude":"19.25095","paymentavailable":true,"operatinghours":null,"locationdescription":"Na stacji Statoil","paymentpointdescr":"Płatność kartą wyłącznie w paczkomacie. Dostępność: 24/7","partnerid":0,"paymenttype":2,"type":"Pack Machine"},{"name":"JGO179","street":"Jana Pawła II","buildingnumber":"17","postcode":"58-506","town":"Jelenia Góra","latitude":"50.91073","longitude":"15.74188","paymentavailable":true,"operatinghours":"Paczkomat: 24/7","locationdescription":"Przy markecie TESCO","paymentpointdescr":"Płatność kartą wyłącznie w paczkomacie. Dostępność: 24/7","partnerid":0,"paymenttype":2,"type":"Pack Machine"},{"name":"JGO182","street":"Al.Jana Pawła II","buildingnumber":"24","postcode":"58-508","town":"Jelenia Góra","latitude":"50.91643","longitude":"15.75476","paymentavailable":true,"operatinghours":"Paczkomat: 24/7 ","locationdescription":"Przy markecie KAUFLAND","paymentpointdescr":"Płatność kartą wyłącznie w paczkomacie. Dostępność: 24/7<br />","partnerid":0,"paymenttype":2,"type":"Pack Machine"},{"name":"JZD097","street":"Piłsudskiego ","buildingnumber":"35","postcode":"44-335","town":"Jastrzębie-Zdrój","latitude":"49.95175","longitude":"18.60015","paymentavailable":false,"operatinghours":"Paczkomat: 24/7","locationdescription":"Przy sklepie E. Leclerc","paymentpointdescr":null,"partnerid":1,"paymenttype":0,"type":"Pack Machine"},{"name":"JZD545","street":"Podhalańska","buildingnumber":"26","postcode":"44-335","town":"Jastrzębie-Zdrój","latitude":"49.9393","longitude":"18.59411","paymentavailable":true,"operatinghours":"Paczkomat:24/7","locationdescription":"Przy markecie Carrefour","paymentpointdescr":"Płatność kartą wyłącznie w paczkomacie. Dostępność: 24/7<br />","partnerid":0,"paymenttype":2,"type":"Pack Machine"},{"name":"KAL353","street":"Podmiejska","buildingnumber":"20","postcode":"62-800","town":"Kalisz","latitude":"51.74577","longitude":"18.06401","paymentavailable":true,"operatinghours":"Paczkomat: 24/7","locationdescription":"Przy markecie KAUFLAND","paymentpointdescr":"Płatność kartą wyłącznie w paczkomacie. Dostępność: 24/7","partnerid":0,"paymenttype":2,"type":"Pack Machine"},{"name":"KAL401","street":"Wojska Polskiego","buildingnumber":"2","postcode":"62-800","town":"Kalisz","latitude":"51.74277","longitude":"18.05078","paymentavailable":false,"operatinghours":"Paczkomat: 24/7","locationdescription":"Przy markecie Tesco","paymentpointdescr":null,"partnerid":0,"paymenttype":0,"type":"Pack Machine"},{"name":"KAR379","street":"Słowackiego","buildingnumber":"72","postcode":"23-204","town":"Kraśnik","latitude":"50.96185","longitude":"22.17773","paymentavailable":true,"operatinghours":"Paczkomat: 24/7","locationdescription":"Przy markecie CARREFOUR","paymentpointdescr":"Płatności gotówką można dokonać u naszego partnera w firmie ABRAKADABRA, ul. Urzędowska 551, w galerii handlowej LONDYN, I piętro w godzinach: Pn-Pt: 10-19, Sb-Nd 10-15<br />Płatność kartą wyłącznie w paczkomacie. Dostępność: 24/7","partnerid":0,"paymenttype":3,"type":"Pack Machine"},{"name":"KAT213","street":"Francuska","buildingnumber":"105","postcode":"40-200","town":"Katowice","latitude":"50.24364","longitude":"19.02404","paymentavailable":true,"operatinghours":"Paczkomat: 24/7","locationdescription":"Stacja paliw LOTOS","paymentpointdescr":"Płatność kartą wyłącznie w paczkomacie. Dostępność: 24/7","partnerid":0,"paymenttype":2,"type":"Pack Machine"},{"name":"KAT214","street":"Kolista","buildingnumber":"5","postcode":"40-486","town":"Katowice","latitude":"50.22632","longitude":"19.06014","paymentavailable":true,"operatinghours":"Paczkomat: 24/7","locationdescription":"Stacja paliw LUKOIL","paymentpointdescr":"Płatność kartą wyłącznie w paczkomacie. Dostępność: 24/7","partnerid":0,"paymenttype":2,"type":"Pack Machine"},{"name":"KAT215","street":"Bytkowska","buildingnumber":"105","postcode":"40-148","town":"Katowice","latitude":"50.29118","longitude":"19.00574","paymentavailable":true,"operatinghours":"Paczkomat: 24/7","locationdescription":"Stacja paliw LUKOIL","paymentpointdescr":"Płatność kartą wyłącznie w paczkomacie. Dostępność: 24/7","partnerid":0,"paymenttype":2,"type":"Pack Machine"},{"name":"KAT216","street":"Kościuszki","buildingnumber":"330","postcode":"40-047","town":"Katowice","latitude":"50.2154","longitude":"18.97978","paymentavailable":true,"operatinghours":"Paczkomat: 24/7","locationdescription":"Stacja paliw LUKOIL, w stronę centrum","paymentpointdescr":"Płatność kartą wyłącznie w paczkomacie. Dostępność: 24/7","partnerid":0,"paymenttype":2,"type":"Pack Machine"},{"name":"KAT224","street":"Bocheńskiego","buildingnumber":"99","postcode":"40-816","town":"Katowice","latitude":"50.25889","longitude":"18.9849","paymentavailable":true,"operatinghours":"Paczkomat: 24/7","locationdescription":"Stacja paliw ORLEN obok salonu Peugeot","paymentpointdescr":"Płatność kartą wyłącznie w paczkomacie. Dostępność: 24/7","partnerid":0,"paymenttype":2,"type":"Pack Machine"},{"name":"KAT452","street":"Roździeńskiego","buildingnumber":"198","postcode":"40-001","town":"Katowice","latitude":"50.26801","longitude":"19.05985","paymentavailable":true,"operatinghours":"Paczkomat: 24/7","locationdescription":"Castorama przy centrum handlowym Dąbrówka","paymentpointdescr":"Płatność kartą wyłącznie w paczkomacie. Dostępność: 24/7","partnerid":0,"paymenttype":2,"type":"Pack Machine"},{"name":"KAT470","street":"Korfantego","buildingnumber":"101","postcode":"40-160","town":"Katowice","latitude":"50.27531","longitude":"19.02424","paymentavailable":true,"operatinghours":"Paczkomat:24/7","locationdescription":"Przy stacji BP","paymentpointdescr":"Płatność kartą wyłącznie w paczkomacie. Dostępność: 24/7","partnerid":0,"paymenttype":2,"type":"Pack Machine"},{"name":"KAT530","street":"Gen. Jankego","buildingnumber":"15d","postcode":"40-615","town":"Katowice","latitude":"50.22017","longitude":"18.991","paymentavailable":true,"operatinghours":"Paczkomat: 24/7","locationdescription":"Przy markecie E. Leclerc","paymentpointdescr":"Płatność kartą wyłącznie w paczkomacie. Dostępność: 24/7","partnerid":0,"paymenttype":2,"type":"Pack Machine"},{"name":"KAT550","street":"Roździeńskiego","buildingnumber":"14","postcode":"40-201","town":"Katowice","latitude":"50.26205","longitude":"19.03247","paymentavailable":true,"operatinghours":"Paczkomat: 24/7","locationdescription":"Przy stacji Paliw BP","paymentpointdescr":null,"partnerid":0,"paymenttype":2,"type":"Pack Machine"},{"name":"KAT853","street":"Tysiąclecia","buildingnumber":"12","postcode":"40-872","town":"Katowice","latitude":"50.2769","longitude":"18.98133","paymentavailable":true,"operatinghours":"Paczkomat: 24/7","locationdescription":"Przy markecie Tesco","paymentpointdescr":"Płatność kartą wyłącznie w paczkomacie. Dostępność: 24/7","partnerid":0,"paymenttype":2,"type":"Pack Machine"},{"name":"KIE075","street":"Massalskiego","buildingnumber":"3","postcode":"25-001","town":"Kielce","latitude":"50.8822","longitude":"20.58498","paymentavailable":false,"operatinghours":"Paczkomat: 24/7","locationdescription":"Pasaż Świetokrzyski obok E'Leclerc","paymentpointdescr":null,"partnerid":26,"paymenttype":0,"type":"Pack Machine"},{"name":"KIE076","street":"Jagiellońska","buildingnumber":"92","postcode":"25-712","town":"Kielce","latitude":"50.8622","longitude":"20.59722","paymentavailable":true,"operatinghours":"Paczkomat: 24/7","locationdescription":"Teren zajezdni MPK po lewej stronie obok dyspozytorni","paymentpointdescr":"Płatność kartą wyłącznie w paczkomacie. Dostępność: 24/7","partnerid":19,"paymenttype":2,"type":"Pack Machine"},{"name":"KIE088","street":"róg Sikorskiego i Warszawskiej","buildingnumber":" ","postcode":"25-414","town":"Kielce","latitude":"50.89719","longitude":"20.66112","paymentavailable":false,"operatinghours":"Paczkomat: 24/7","locationdescription":"Stacja paliw POLTANK przy supermarkecie Lidl","paymentpointdescr":"Płatności gotówką można dokonać w stacji paliw Poltank przy której jest zlokalizowany Paczkomat. Dostępność: 24/7","partnerid":5,"paymenttype":0,"type":"Pack Machine"},{"name":"KIE098","street":"Warszawska","buildingnumber":"90","postcode":"25-402","town":"Kielce","latitude":"50.88212","longitude":"20.63993","paymentavailable":true,"operatinghours":"Paczkomat i płatność kartą: 24/7<br />","locationdescription":"Stacja LUKOIL w pobliżu Politechniki Świętokrzyskiej ","paymentpointdescr":"Płatność kartą wyłącznie w paczkomacie. Dostępność: 24/7","partnerid":2,"paymenttype":2,"type":"Pack Machine"},{"name":"KIE100","street":"Starowapiennikowa/Barwinek","buildingnumber":" ","postcode":"25-105","town":"Kielce","latitude":"50.85204","longitude":"20.63235","paymentavailable":false,"operatinghours":"Paczkomat: 24/7","locationdescription":"Parking strzeżony u zbiegu ul. Starowapiennikowej i Barwinek, w pobliżu myjni bezdotykowej","paymentpointdescr":null,"partnerid":23,"paymenttype":0,"type":"Pack Machine"},{"name":"KIE101","street":"Domaszowska","buildingnumber":"73","postcode":"25-315","town":"Kielce","latitude":"50.87536","longitude":"20.65096","paymentavailable":false,"operatinghours":"Paczkomat: 24/7","locationdescription":"Stacja BLISKA, przy stacji kontroli pojazdów GTECH","paymentpointdescr":null,"partnerid":25,"paymenttype":0,"type":"Pack Machine"},{"name":"KKZ543","street":"Kozielska","buildingnumber":"20","postcode":"47-220","town":"Kędzierzyn Koźle","latitude":"50.3421","longitude":"18.19361","paymentavailable":true,"operatinghours":"Paczkomat:24/7","locationdescription":"Przy markecie Carrefour","paymentpointdescr":"Płatność kartą wyłącznie w paczkomacie. Dostępność 24/7<br />","partnerid":0,"paymenttype":2,"type":"Pack Machine"},{"name":"KLU230","street":"Katowicka","buildingnumber":"26","postcode":"46-200","town":"Kluczbork","latitude":"50.97393","longitude":"18.22474","paymentavailable":false,"operatinghours":"Paczkomat: 24/7","locationdescription":"Stacja Paliw SYPKO","paymentpointdescr":null,"partnerid":0,"paymenttype":0,"type":"Pack Machine"},{"name":"KNU835","street":"Szpitalna","buildingnumber":"37","postcode":"44-194","town":"Knurów","latitude":"50.23309","longitude":"18.64614","paymentavailable":true,"operatinghours":null,"locationdescription":"Przy Hipermarkecie Tesco","paymentpointdescr":"Płatność kartą wyłącznie w paczkomacie. Dostępność: 24/7","partnerid":0,"paymenttype":2,"type":"Pack Machine"},{"name":"KOL280","street":"Młyńska","buildingnumber":"9","postcode":"78-100","town":"Kołobrzeg","latitude":"54.17128","longitude":"15.57324","paymentavailable":true,"operatinghours":"Paczkomat: 24/7","locationdescription":"Przy markecie KAUFLAND","paymentpointdescr":"Płatność kartą wyłącznie w paczkomacie. Dostępność 24/7","partnerid":0,"paymenttype":2,"type":"Pack Machine"},{"name":"KOL307","street":"Toruńska","buildingnumber":"7","postcode":"78-102","town":"Kołobrzeg","latitude":"54.1643","longitude":"15.55004","paymentavailable":true,"operatinghours":"Paczkomat: 24/7","locationdescription":"Stacja paliw PILAWA, przy myjni samochodowej","paymentpointdescr":"Płatność kartą wyłącznie w paczkomacie. Dostępność: 24/7","partnerid":0,"paymenttype":2,"type":"Pack Machine"},{"name":"KOL310","street":"Chodkiewicza/Wschodnia","buildingnumber":" ","postcode":"78-105","town":"Kołobrzeg","latitude":"54.181","longitude":"15.60106","paymentavailable":true,"operatinghours":"Paczkomat: 24/7","locationdescription":"Parking strzeżony, obok bramy wjazdowej","paymentpointdescr":"Płatność kartą wyłącznie w paczkomacie. Dostępność: 24/7","partnerid":0,"paymenttype":2,"type":"Pack Machine"},{"name":"KON123","street":"Spółdzielców","buildingnumber":"6","postcode":"62-510","town":"Konin","latitude":"52.23133","longitude":"18.23805","paymentavailable":false,"operatinghours":"Paczkomat: 24/7","locationdescription":"Przy markecie KAUFLAND","paymentpointdescr":null,"partnerid":62,"paymenttype":0,"type":"Pack Machine"},{"name":"KON851","street":"Chopina","buildingnumber":"24","postcode":"62-510","town":"Konin","latitude":"52.23141","longitude":"18.25893","paymentavailable":false,"operatinghours":"Paczkomat: 24/7","locationdescription":"Przy markecie TESCO","paymentpointdescr":null,"partnerid":0,"paymenttype":0,"type":"Pack Machine"},{"name":"KOS274","street":"Przemysłowa","buildingnumber":"1","postcode":"75-122","town":"Koszalin","latitude":"54.20243","longitude":"16.15889","paymentavailable":true,"operatinghours":"Paczkomat: 24/7","locationdescription":"Stacja paliw LOTOS","paymentpointdescr":"Płatności gotówką można dokonać  u naszego partnera na terenie stacji LOTOS, przy której zlokalizowany jest paczkomat. Dostępność: 24/7<br />Płatność kartą wyłącznie w paczkomacie. Dostępność 24/7","partnerid":0,"paymenttype":3,"type":"Pack Machine"},{"name":"KOS275","street":"Morska ","buildingnumber":"6","postcode":"75-221","town":"Koszalin","latitude":"54.19061","longitude":"16.17084","paymentavailable":false,"operatinghours":"Paczkomat: 24/7","locationdescription":"Przy markecie KAUFLAND","paymentpointdescr":"<br />","partnerid":0,"paymenttype":0,"type":"Pack Machine"},{"name":"KOS276","street":"Krakusa i Wandy","buildingnumber":"34","postcode":"75-032","town":"Koszalin","latitude":"54.18636","longitude":"16.17565","paymentavailable":true,"operatinghours":"Paczkomat: 24/7","locationdescription":"Przy galerii handlowej NOVA","paymentpointdescr":"Płatności gotówką można dokonać u naszego partnera w sklepie z oświetleniem, ul. Drzymały 21, w godzinach: Pn-Pt: 10-18, Sb: 10-14.<br />Płatność kartą wyłącznie w paczkomacie. Dostępność 24/7","partnerid":0,"paymenttype":3,"type":"Pack Machine"},{"name":"KOS277","street":"Gnieźnieńska","buildingnumber":"18","postcode":"75-736","town":"Koszalin","latitude":"54.17921","longitude":"16.19405","paymentavailable":true,"operatinghours":"Paczkomat: 24/7","locationdescription":"Teren firmy 'Auto Mobil Centrum'","paymentpointdescr":"Płatność kartą wyłącznie w paczkomacie. Dostępność 24/7","partnerid":0,"paymenttype":2,"type":"Pack Machine"},{"name":"KOS278","street":"Szczecińska","buildingnumber":"31E","postcode":"75-122","town":"Koszalin","latitude":"54.18471","longitude":"16.15853","paymentavailable":true,"operatinghours":"Paczkomat: 24/7","locationdescription":"Stacja paliw","paymentpointdescr":"Płatności gotówką można dokonać u naszego partnera na terenie stacji paliw, przy której zlokalizowany jest paczkomat. Dostępność: 24/7<br />Płatność kartą wyłącznie w paczkomacie. Dostępność: 24/7","partnerid":0,"paymenttype":3,"type":"Pack Machine"},{"name":"KOS279","street":"Gdańska","buildingnumber":"31","postcode":"75-304","town":"Koszalin","latitude":"54.20653","longitude":"16.20629","paymentavailable":true,"operatinghours":"Paczkomat: 24/7","locationdescription":"Stacja paliw ","paymentpointdescr":"Płatność kartą wyłącznie w paczkomacie. Dostępność 24/7","partnerid":0,"paymenttype":2,"type":"Pack Machine"},{"name":"KRA003","street":"Aleja Pokoju","buildingnumber":"91","postcode":"31-564","town":"Kraków","latitude":"50.06891","longitude":"20.01304","paymentavailable":true,"operatinghours":"Paczkomat: 24/7","locationdescription":"Stacja paliw LOTOS przy salonie Peugeot","paymentpointdescr":"Płatności gotówką można dokonać w stacji paliw Lotos przy której jest zlokalizowany Paczkomat. Dostępność: 24/7","partnerid":1,"paymenttype":1,"type":"Pack Machine"},{"name":"KRA007","street":"Kapelanka","buildingnumber":"14","postcode":"30-347","town":"Kraków","latitude":"50.03988","longitude":"19.92485","paymentavailable":true,"operatinghours":"Paczkomat: 24/7","locationdescription":"Stacja paliw LOTOS 500m od Tesco","paymentpointdescr":"Płatności gotówką można dokonać w stacji paliw Lotos przy której jest zlokalizowany Paczkomat. Dostępność: 24/7","partnerid":1,"paymenttype":1,"type":"Pack Machine"},{"name":"KRA010","street":"Malborska","buildingnumber":"130","postcode":"30-624","town":"Kraków","latitude":"50.02121","longitude":"19.96169","paymentavailable":true,"operatinghours":"Paczkomat: 24/7","locationdescription":"Siedziba Główna InPost","paymentpointdescr":"Płatności gotówką można dokonać Punkcie Obsługi Klienta InPost bezpośrednio przy Paczkomacie w godzinach Pn-Pt:  8:00-18:00, Sb-Nd: Nieczynne.","partnerid":27,"paymenttype":1,"type":"Pack Machine"},{"name":"KRA011","street":"Opolska","buildingnumber":"9","postcode":"31-274","town":"Kraków","latitude":"50.09103","longitude":"19.9299","paymentavailable":true,"operatinghours":"Paczkomat: 24/7","locationdescription":"Stacja paliw LUKOIL obok salonu Peugeot i McDonald's","paymentpointdescr":"Płatności kartą wyłącznie w paczkomacie. Dostępność 24/7","partnerid":2,"paymenttype":2,"type":"Pack Machine"},{"name":"KRA012","street":"Os. Kombatantów","buildingnumber":"20","postcode":"31-612","town":"Kraków","latitude":"50.08913","longitude":"20.00399","paymentavailable":true,"operatinghours":"Paczkomat: 24/7","locationdescription":"Stacja paliw LOTOS w pobliżu marketu Lidl","paymentpointdescr":"Płatności gotówką można dokonać w stacji paliw Lotos przy której jest zlokalizowany Paczkomat. Dostępność: 24/7","partnerid":1,"paymenttype":1,"type":"Pack Machine"},{"name":"KRA013","street":"Góra Libertowska","buildingnumber":"2","postcode":"30-444","town":"Kraków","latitude":"49.9826","longitude":"19.91132","paymentavailable":true,"operatinghours":"Paczkomat: 24/7","locationdescription":"Stacja paliw LUKOIL naprzeciwko PSB","paymentpointdescr":"Płatności gotówką można dokonać u naszego partnera w punkcie LOTTO ul. Jana Pawła II 32, Libertów w godzinach: Pn-Sb 5:30-20:00, Nd 8:00-15:00.","partnerid":2,"paymenttype":1,"type":"Pack Machine"},{"name":"KRA067","street":"Wielicka","buildingnumber":"21","postcode":"30-552","town":"Kraków","latitude":"50.04001","longitude":"19.96272","paymentavailable":true,"operatinghours":"Paczkomat: 24/7","locationdescription":"Stacja paliw PKN Orlen obok Urzędu Miasta","paymentpointdescr":"Płatności kartą wyłącznie w paczkomacie. Dostępność 24/7","partnerid":10,"paymenttype":2,"type":"Pack Machine"},{"name":"KRA120","street":"Kazimierza Wielkiego","buildingnumber":"121","postcode":"30-074","town":"Kraków","latitude":"50.07479","longitude":"19.91013","paymentavailable":false,"operatinghours":"Paczkomat: 24/7","locationdescription":"Stacja paliw ORLEN w pobliżu Wydział Architektury PK","paymentpointdescr":null,"partnerid":10,"paymenttype":0,"type":"Pack Machine"},{"name":"KRA124","street":"Rakowicka","buildingnumber":"27","postcode":"31-510","town":"Kraków","latitude":"50.06894","longitude":"19.95431","paymentavailable":true,"operatinghours":"Paczkomat: 24/7","locationdescription":"Obok stacji TRAFO, teren Uniwersytetu Ekonomicznego ","paymentpointdescr":"Płatność kartą wyłącznie w paczkomacie. Dostępność 24/7.","partnerid":61,"paymenttype":2,"type":"Pack Machine"},{"name":"KRA127","street":"Norymberska","buildingnumber":"1","postcode":"30-376","town":"Kraków","latitude":"50.03002","longitude":"19.91234","paymentavailable":true,"operatinghours":"Paczkomat: 24/7","locationdescription":"Przy markecie KAUFLAND","paymentpointdescr":"Płatność kartą wyłącznie w paczkomacie. Dostępność: 24/7","partnerid":7,"paymenttype":2,"type":"Pack Machine"},{"name":"KRA128","street":"Zakopiańska","buildingnumber":"58","postcode":"30-418","town":"Kraków","latitude":"50.01808","longitude":"19.9313","paymentavailable":true,"operatinghours":"Paczkomat: 24/7","locationdescription":"Stacja paliw PKN Orlen obok CH Zakopianka","paymentpointdescr":"Płatności gotówką można dokonać u naszego partnera w kantorze RYŚ, przy wejściu do marketu CARREFOUR od strony marketu DECATHLON w godzinach: Pn-Sb: 9-19:30, Nd: 10-18:30<br />Płatności kartą wyłącznie w paczkomacie. Dostępność 24/7","partnerid":10,"paymenttype":3,"type":"Pack Machine"},{"name":"KRA131","street":"Kamienna","buildingnumber":"18","postcode":"31-403","town":"Kraków","latitude":"50.07738","longitude":"19.9479","paymentavailable":true,"operatinghours":"Paczkomat: 24/7","locationdescription":"Stacja paliw BLISKA naprzeciwko cmentarza Rakowickiego","paymentpointdescr":"Płatności gotówką można dokonać w kasie naszego Partnera <br />na ternie firmy \\\\\\'Rena\\\\\\' przy ul Al. 29-go Listopada 32d w godzinach: Pn-Pt: 9:00-17:00 Sb-Nd: Nieczynne","partnerid":46,"paymenttype":1,"type":"Pack Machine"},{"name":"KRA132","street":"Pilotów","buildingnumber":"4B","postcode":"31-462","town":"Kraków","latitude":"50.07897","longitude":"19.97099","paymentavailable":true,"operatinghours":"Paczkomat: 24/7","locationdescription":"Stacja paliw PKN Orlen obok supermarketu Alma","paymentpointdescr":"Płatności gotówką można dokonać w kasie naszego Partnera <br />na ternie Sklepu Motoryzacyjnego \\\\\\'Auto Moto\\\\\\' ul. Pilotów w godzinach: Pn-Pt: 8:00-18:00 Sb: 08:00-14:00<br />Płatność kartą wyłącznie w paczkomacie. Dostępność: 24/7","partnerid":10,"paymenttype":3,"type":"Pack Machine"},{"name":"KRA139","street":"Podgórska","buildingnumber":"32","postcode":"31-536","town":"Kraków","latitude":"50.05169","longitude":"19.95392","paymentavailable":true,"operatinghours":"Paczkomat: 24/7","locationdescription":"Stacja paliw PKN Orlen naprzeciwko Galerii Kazimierz ","paymentpointdescr":"Płatności gotówką można dokonać w kasie naszego Partnera <br />na ternie Punktu InPost Galerii Kazimierz ul. Podgórska 34 w godzinach: Pn-Pt: 10:00-21:00 Sb: 10:00-20:00","partnerid":10,"paymenttype":1,"type":"Pack Machine"},{"name":"KRA146","street":"Bratysławska","buildingnumber":"4","postcode":"31-201","town":"Kraków","latitude":"50.08547","longitude":"19.93684","paymentavailable":false,"operatinghours":"Paczkomat: 24/7","locationdescription":"Przy markecie KAUFLAND","paymentpointdescr":null,"partnerid":7,"paymenttype":0,"type":"Pack Machine"},{"name":"KRA148","street":"Mogilska","buildingnumber":"122","postcode":"31-445","town":"Kraków","latitude":"50.06888","longitude":"19.97943","paymentavailable":true,"operatinghours":"Paczkomat: 24/7","locationdescription":"Stacja paliw ORLEN w pobliżu KUSP Gromada","paymentpointdescr":"Płatności gotówką można dokonać u naszego partnera w sklepie FRAJDA 2, Al. Jana Pawła II 12 w godzinach: Pn-Nd: 8-21<br />Płatność kartą wyłącznie w paczkomacie. Dostępność: 24/7","partnerid":10,"paymenttype":3,"type":"Pack Machine"},{"name":"KRA149","street":"Jasnogórska","buildingnumber":"2B","postcode":"31-138","town":"Kraków","latitude":"50.08999","longitude":"19.89341","paymentavailable":true,"operatinghours":"Paczkomat: 24/7","locationdescription":"Stacja paliw ORLEN w pobliżu Makro Cash and Carry","paymentpointdescr":"Płatność kartą wyłącznie w paczkomacie. Dostępność: 24/7","partnerid":10,"paymenttype":2,"type":"Pack Machine"},{"name":"KRA302","street":"Bora Komorowskiego","buildingnumber":"39","postcode":"31-876","town":"Kraków","latitude":"50.08716","longitude":"19.9886","paymentavailable":true,"operatinghours":"Paczkomat: Dostępność 24/7","locationdescription":"Stacja paliw BP od strony Multikina, przy CH Krokus.","paymentpointdescr":"Płatność kartą wyłączenie w paczkomacie. Dostępność: 24/7","partnerid":0,"paymenttype":2,"type":"Pack Machine"},{"name":"KRA303","street":"Kapelanka","buildingnumber":"54","postcode":"30-347","town":"Kraków","latitude":"50.03307","longitude":"19.92307","paymentavailable":true,"operatinghours":"Paczkomat: 24/7","locationdescription":"Przy markecie TESCO","paymentpointdescr":"Płatności kartą wyłącznie w paczkomacie. Dostępność 24/7","partnerid":0,"paymenttype":2,"type":"Pack Machine"},{"name":"KRA390","street":"Wielicka","buildingnumber":"259","postcode":"30-663","town":"Kraków","latitude":"50.01447","longitude":"19.9961","paymentavailable":true,"operatinghours":"Paczkomat: 24/7","locationdescription":"Przy markecie TESCO","paymentpointdescr":"Płatność kartą wyłącznie w paczkomacie. Dostępność 24/7","partnerid":0,"paymenttype":2,"type":"Pack Machine"},{"name":"KRA435","street":"Aleja Pokoju","buildingnumber":"67","postcode":"31-580","town":"Kraków","latitude":"50.06448","longitude":"19.9994","paymentavailable":true,"operatinghours":"Paczkomaty:24/7","locationdescription":"Centrum Handlowe M1","paymentpointdescr":"Płatność kartą wyłącznie w paczkomacie. Dostępność: 24/7","partnerid":0,"paymenttype":2,"type":"Pack Machine"},{"name":"KRA463","street":"Krakowska","buildingnumber":"1","postcode":"32-080","town":"Zabierzów","latitude":"50.11065","longitude":"19.8141","paymentavailable":true,"operatinghours":"Paczkomat: 24/7","locationdescription":"Przy markecie Biedronka","paymentpointdescr":"Płatność kartą wyłącznie w paczkomacie. Dostępność: 24/7","partnerid":0,"paymenttype":2,"type":"Pack Machine"},{"name":"KRA546","street":"Wadowicka","buildingnumber":"4","postcode":"30-415","town":"Kraków","latitude":"50.03436","longitude":"19.9401","paymentavailable":true,"operatinghours":null,"locationdescription":"Przy Stacji Paliw BP ","paymentpointdescr":"Płatność kartą wyłącznie w paczkomacie. Dostępność: 24/7","partnerid":0,"paymenttype":2,"type":"Pack Machine"},{"name":"KRA547","street":"Zakopiańska","buildingnumber":"107","postcode":"30-418","town":"Kraków","latitude":"50.01303","longitude":"19.92806","paymentavailable":true,"operatinghours":null,"locationdescription":"Stacja Paliw BP","paymentpointdescr":"Płatność kartą wyłącznie w paczkomacie. Dostępność: 24/7","partnerid":0,"paymenttype":2,"type":"Pack Machine"},{"name":"KRA548","street":"Wybickiego","buildingnumber":"10","postcode":"31-261","town":"Kraków","latitude":"50.08393","longitude":"19.92746","paymentavailable":true,"operatinghours":null,"locationdescription":"Przy markecie Tesco","paymentpointdescr":"Płatność kartą wyłącznie w paczkomacie. Dostępność: 24/7","partnerid":0,"paymenttype":2,"type":"Pack Machine"},{"name":"KRA549","street":"os. Wandy","buildingnumber":"33","postcode":"31-907","town":"Kraków","latitude":"50.06927","longitude":"20.05215","paymentavailable":true,"operatinghours":null,"locationdescription":"Przy Placu Targowym 'Bulwar' S.C.","paymentpointdescr":"Płatność kartą wyłącznie w paczkomacie. Dostępność: 24/7","partnerid":0,"paymenttype":2,"type":"Pack Machine"},{"name":"KRA551","street":"3 Maja","buildingnumber":"5","postcode":"30-063","town":"Kraków","latitude":"50.06018","longitude":"19.92205","paymentavailable":true,"operatinghours":"Paczkomat:24/7","locationdescription":"Przy HS 'Żaczek'","paymentpointdescr":null,"partnerid":0,"paymenttype":2,"type":"Pack Machine"},{"name":"KRA552","street":"Osiedle 2 Pułku Lotniczego","buildingnumber":"2b","postcode":"31-867","town":"Kraków","latitude":"50.0778","longitude":"20.01236","paymentavailable":true,"operatinghours":"Paczkomat:24/7","locationdescription":"Przy F.H.U. VULKO","paymentpointdescr":"Płatność kartą wyłącznie w paczkomacie. Dostępność: 24/7<br />","partnerid":0,"paymenttype":2,"type":"Pack Machine"},{"name":"KRA553","street":"Mackiewicza","buildingnumber":"17","postcode":"31-210","town":"Kraków","latitude":"50.09422","longitude":"19.94711","paymentavailable":false,"operatinghours":"Paczkomat:24/7","locationdescription":"Przy markecie Simply","paymentpointdescr":null,"partnerid":0,"paymenttype":0,"type":"Pack Machine"},{"name":"KRA824","street":"29 listopada","buildingnumber":"137","postcode":"31-406","town":"Kraków","latitude":"50.09127","longitude":"19.96004","paymentavailable":true,"operatinghours":"Paczkomat: 24/7","locationdescription":"Przy Hotelu APIS","paymentpointdescr":"Płatność kartą wyłącznie w paczkomacie. Dostępność: 24/7","partnerid":0,"paymenttype":2,"type":"Pack Machine"},{"name":"KRA845","street":"Witosa","buildingnumber":"7","postcode":"30-612","town":"Kraków","latitude":"50.01316","longitude":"19.96252","paymentavailable":true,"operatinghours":"Paczkomat:24/7","locationdescription":"przy markecie Carrefour","paymentpointdescr":"Płatność kartą wyłącznie w paczkomacie. Dostępność: 24/7","partnerid":0,"paymenttype":2,"type":"Pack Machine"},{"name":"KRA846","street":"Bronowicka","buildingnumber":"15","postcode":"30-084","town":"Kraków","latitude":"50.07666","longitude":"19.90385","paymentavailable":true,"operatinghours":"Paczkomat: 24/7","locationdescription":"Przy firmie SatControl","paymentpointdescr":"Płatność kartą wyłącznie w paczkomacie. Dostępność: 24/7","partnerid":0,"paymenttype":2,"type":"Pack Machine"},{"name":"KRA905","street":"Balicka","buildingnumber":"16","postcode":"30-063","town":"Kraków","latitude":"50.08137","longitude":"19.88265","paymentavailable":false,"operatinghours":null,"locationdescription":"Przy Market Punkt/Lewiatan","paymentpointdescr":"Płatność kartą wyłącznie w paczkomacie. Dostępność: 24/7","partnerid":0,"paymenttype":0,"type":"Pack Machine"},{"name":"KRA936","street":"os. Złotego Wieku","buildingnumber":"14","postcode":"31-616","town":"Kraków","latitude":"50.09562","longitude":"20.00206","paymentavailable":false,"operatinghours":"Paczkomat: 24/7","locationdescription":"Przy spółdzielni SM Mistrzejowice","paymentpointdescr":"Płatność kartą wyłącznie w paczkomacie. Dostępność: 24/7","partnerid":0,"paymenttype":0,"type":"Pack Machine"},{"name":"KRA944","street":"Jana Pawła II","buildingnumber":"41 C","postcode":"31-864","town":"Kraków","latitude":"50.07971","longitude":"19.99372","paymentavailable":true,"operatinghours":null,"locationdescription":"Przy Budynku Copernicus","paymentpointdescr":"Płatność kartą wyłącznie w paczkomacie. Dostępność: 24/7","partnerid":0,"paymenttype":2,"type":"Pack Machine"},{"name":"KRA947","street":"pl. Na Stawach","buildingnumber":"7","postcode":"30-107","town":"Kraków","latitude":"50.05464","longitude":"19.92163","paymentavailable":false,"operatinghours":null,"locationdescription":"Na Pacu Targowym 'Na Stawach'","paymentpointdescr":null,"partnerid":0,"paymenttype":0,"type":"Pack Machine"},{"name":"KRO143","street":"Składowa","buildingnumber":"9","postcode":"38-400","town":"Krosno","latitude":"49.68517","longitude":"21.75075","paymentavailable":true,"operatinghours":"Paczkomat: 24/7 ","locationdescription":"Stacja Gazowa LPG KAMA-GAZ za Urzędem Skarbowym ","paymentpointdescr":null,"partnerid":41,"paymenttype":1,"type":"Pack Machine"},{"name":"KRO144","street":"Fredry","buildingnumber":"3","postcode":"38-400","town":"Krosno","latitude":"49.69655","longitude":"21.77088","paymentavailable":false,"operatinghours":"Paczkomat: 24/7","locationdescription":"Stacja paliw GROSAR naprzeciwko budynku BOK MPGK","paymentpointdescr":null,"partnerid":40,"paymenttype":0,"type":"Pack Machine"},{"name":"KRO282","street":"Boh. Westerplatte","buildingnumber":"29","postcode":"38-400","town":"Krosno","latitude":"49.68581","longitude":"21.78185","paymentavailable":false,"operatinghours":"Paczkomat: 24/7","locationdescription":"Przy budynku EMPO - Super Market Zielony Groszek","paymentpointdescr":null,"partnerid":0,"paymenttype":0,"type":"Pack Machine"},{"name":"KRO294","street":"Naftowa","buildingnumber":"25","postcode":"38-400","town":"Krosno","latitude":"49.69552","longitude":"21.74725","paymentavailable":true,"operatinghours":"Paczkomat: 24/7","locationdescription":"Teren PKS, naprzeciwko stanowiska nr 6","paymentpointdescr":"Płatności gotówką można dokonać w punkcie Totalizatora Sportowego, ul. Naftowa 10A, Krosno, w godzinach: Pn 10:00-18:00, Wt-Pt 10:00-19:00, Sb 9:00-19:00, Nd 9:00-15:00. Płatność kartą wyłącznie w paczkomacie. Dostępność: 24/7","partnerid":0,"paymenttype":3,"type":"Pack Machine"},{"name":"KRS943","street":"Koźmińska","buildingnumber":"47 C","postcode":"63-700","town":"Krotoszyn","latitude":"51.70076","longitude":"17.43826","paymentavailable":false,"operatinghours":"Paczkomat: 24/7","locationdescription":"Przy markecie Polomarket","paymentpointdescr":null,"partnerid":0,"paymenttype":0,"type":"Pack Machine"},{"name":"KTR966","street":"Urocza","buildingnumber":"4 ","postcode":"11-400","town":"Kętrzyn","latitude":"54.08147","longitude":"21.36677","paymentavailable":true,"operatinghours":"Paczkomat: 24/7","locationdescription":"Przy markecie Polomarket","paymentpointdescr":"Płatność kartą wyłącznie w paczkomacie. Dostępność: 24/7","partnerid":0,"paymenttype":2,"type":"Pack Machine"},{"name":"KTY529","street":"700-lecia","buildingnumber":"20","postcode":"32-650","town":"Kęty","latitude":"49.87424","longitude":"19.21515","paymentavailable":false,"operatinghours":"Paczkomat: 24/7","locationdescription":"Przy markecie Tesco","paymentpointdescr":null,"partnerid":0,"paymenttype":0,"type":"Pack Machine"},{"name":"KUT053","street":"Oporowska","buildingnumber":"6A","postcode":"99-300","town":"Kutno","latitude":"52.23269","longitude":"19.36659","paymentavailable":false,"operatinghours":"Paczkomat: 24/7","locationdescription":"Przy markecie CARREFOUR","paymentpointdescr":null,"partnerid":10,"paymenttype":0,"type":"Pack Machine"},{"name":"KWD894","street":"Kopernika","buildingnumber":"25a","postcode":"82-500","town":"Kwidzyn","latitude":"53.7318","longitude":"18.92929","paymentavailable":true,"operatinghours":null,"locationdescription":"Przy Galerii Kopernik","paymentpointdescr":"Płatność kartą wyłącznie w paczkomacie. Dostępność: 24/7","partnerid":0,"paymenttype":2,"type":"Pack Machine"},{"name":"LAN297","street":"Mickiewicza","buildingnumber":"10","postcode":"37-100","town":"Łańcut","latitude":"50.06522","longitude":"22.22949","paymentavailable":false,"operatinghours":"Paczkomat: 24/7","locationdescription":"Przy Cetrum Handlowym KAPITOL","paymentpointdescr":null,"partnerid":0,"paymenttype":0,"type":"Pack Machine"},{"name":"LBN892","street":"Zwycięstwa","buildingnumber":"3","postcode":"42-700","town":"Lubliniec","latitude":"50.67365","longitude":"18.68119","paymentavailable":true,"operatinghours":null,"locationdescription":"Przy markecie Intermarche","paymentpointdescr":"Płatność kartą wyłącznie w paczkomacie. Dostępność 24/7","partnerid":0,"paymenttype":2,"type":"Pack Machine"},{"name":"LBU194","street":"I. Paderewskiego","buildingnumber":"101","postcode":"59-300","town":"Lubin","latitude":"51.39089","longitude":"16.20889","paymentavailable":true,"operatinghours":"Paczkomat: 24/7","locationdescription":"Przy markecie TESCO","paymentpointdescr":"Płatność kartą wyłącznie w paczkomacie. Dostępność: 24/7","partnerid":0,"paymenttype":2,"type":"Pack Machine"},{"name":"LBU199","street":"Konstytucji 3 Maja","buildingnumber":" ","postcode":"59-300","town":"Lubin","latitude":"51.40206","longitude":"16.19967","paymentavailable":true,"operatinghours":"Paczkomat: 24/7","locationdescription":"Stacja paliw LOTOS","paymentpointdescr":"Płatności można dokonać w kasie naszego partnera na stacji Lotos, w miejscu gdzie zlokalizowany jest paczkomat. Dostępność: 24/7<br />Płatność kartą wyłącznie w paczkomacie. Dostępność: 24/7","partnerid":0,"paymenttype":3,"type":"Pack Machine"},{"name":"LEG177","street":"Tokarzewskiego","buildingnumber":" ","postcode":"59-220","town":"Legnica","latitude":"51.20194","longitude":"16.2174","paymentavailable":true,"operatinghours":"Paczkomat: 24/7","locationdescription":"Parking strzeżony na tyłach marketu Carrefour","paymentpointdescr":"Płatności gotówką można dokonać u naszego partnera w kiosku ABCD, ul. Wierzyńskiego 20 w godzinach: Pn-Pt: 8-18, Sb:8-14.<br />Płatność kartą wyłącznie w paczkomacie. Dostępność 24/7","partnerid":0,"paymenttype":3,"type":"Pack Machine"},{"name":"LEG178","street":"Bieszczadzka","buildingnumber":" ","postcode":"59-220","town":"Legnica","latitude":"51.1997","longitude":"16.20039","paymentavailable":true,"operatinghours":"Paczkomat: 24/7","locationdescription":"Parking strzeżony obok Społdzielni 'PIEKARY'","paymentpointdescr":"Płatność kartą wyłącznie w paczkomacie. Dostępność: 24/7","partnerid":0,"paymenttype":2,"type":"Pack Machine"},{"name":"LEG190","street":"Wrocławska","buildingnumber":"101","postcode":"59-200","town":"Legnica","latitude":"51.20987","longitude":"16.17985","paymentavailable":true,"operatinghours":"Paczkomat: 24/7","locationdescription":"Stacja gazowa mieszcząca się naprzeciwko marketu NETTO","paymentpointdescr":"Płatności gotówką można dokonać u naszego partnera w pasmanterii na rogu ulic Rzemieślniczej i Wrocławskiej w godzinach: Pn-Pt: 10-18, Sb: 10-14<br />Płatność kartą wyłącznie w paczkomacie. Dostępność: 24/7","partnerid":0,"paymenttype":3,"type":"Pack Machine"},{"name":"LEG201","street":"Asnyka","buildingnumber":"27","postcode":"59-220","town":"Legnica","latitude":"51.20181","longitude":"16.14031","paymentavailable":true,"operatinghours":"Paczkomat: 24/7","locationdescription":"Parking przy dyskoncie BIEDRONKA","paymentpointdescr":"Płatności gotówką można dokonać u naszego partnera, w sklepie ogólnospożywczym ATUT, w godzinach: Pn-Sb: 6-20, Nd: 9-17.<br />Płatność kartą wyłącznie w paczkomacie. Dostępność: 24/7","partnerid":0,"paymenttype":3,"type":"Pack Machine"},{"name":"LEG210","street":"Iwaszkiewicza","buildingnumber":"1","postcode":"59-220","town":"Legnica","latitude":"51.20747","longitude":"16.21361","paymentavailable":true,"operatinghours":"Paczkomat: 24/7","locationdescription":"Przy markecie KAUFLAND","paymentpointdescr":"Płatność kartą wyłącznie w paczkomacie. Dostępność: 24/7","partnerid":7,"paymenttype":2,"type":"Pack Machine"},{"name":"LES137","street":"Narutowicza ","buildingnumber":"84","postcode":"64-100","town":"Leszno","latitude":"51.85524","longitude":"16.57764","paymentavailable":false,"operatinghours":"Paczkomat: 24/7","locationdescription":"Centrum Handlowe Nasze Leszno","paymentpointdescr":null,"partnerid":0,"paymenttype":0,"type":"Pack Machine"},{"name":"LES534","street":"Al. Konstytucji 3 Maja","buildingnumber":"12","postcode":"64-100","town":"Leszno","latitude":"51.82751","longitude":"16.60011","paymentavailable":true,"operatinghours":"Paczkomat: 24/7","locationdescription":"Przy Centrum Handlowym Galeria Leszno","paymentpointdescr":"Płatność kartą wyłącznie w paczkomacie. Dostępność: 24/7<br />","partnerid":0,"paymenttype":2,"type":"Pack Machine"},{"name":"LGE357","street":"Zegrzyńska","buildingnumber":"115","postcode":"05-119","town":"Legionowo","latitude":"52.4087","longitude":"20.95463","paymentavailable":true,"operatinghours":"Paczkomat: 24/7","locationdescription":"Przy markecie KAUFLAND","paymentpointdescr":"Płatność kartą wyłącznie w paczkomacie. Dostępność: 24/7","partnerid":0,"paymenttype":2,"type":"Pack Machine"},{"name":"LGE387","street":"Piłsudskiego","buildingnumber":"43","postcode":"05-120","town":"Legionowo","latitude":"52.39434","longitude":"20.92959","paymentavailable":true,"operatinghours":"Paczkomat: 24/7","locationdescription":"Przy markecie CARREFOUR","paymentpointdescr":"Płatność kartą wyłącznie w paczkomacie. Dostępność: 24/7","partnerid":0,"paymenttype":2,"type":"Pack Machine"},{"name":"LMN895","street":"Warszawska","buildingnumber":"193/203","postcode":"05-092","town":"Łomianki","latitude":"52.34665","longitude":"20.86918","paymentavailable":false,"operatinghours":null,"locationdescription":"Przy Centrum CH Łomianki","paymentpointdescr":null,"partnerid":0,"paymenttype":0,"type":"Pack Machine"},{"name":"LOD034","street":"Czechosłowacka","buildingnumber":"3a","postcode":"92-216","town":"Łódź","latitude":"51.77173","longitude":"19.50787","paymentavailable":true,"operatinghours":"Paczkomat: 24/7","locationdescription":"Stacja Auto-Gaz naprzeciwko szpitala","paymentpointdescr":"Płatności można dokonać w stacji paliw Autogaz przy której jest zlokalizowany Paczkomat. Dostępność: 24/7","partnerid":28,"paymenttype":1,"type":"Pack Machine"},{"name":"LOD036","street":"Zgierska","buildingnumber":"104a","postcode":"91-303","town":"Łódź","latitude":"51.79186","longitude":"19.44598","paymentavailable":false,"operatinghours":"Paczkomat: 24/7","locationdescription":"Przy markecie KAUFLAND","paymentpointdescr":null,"partnerid":10,"paymenttype":0,"type":"Pack Machine"},{"name":"LOD045","street":"Inflancka","buildingnumber":"37","postcode":"91-848","town":"Łódź","latitude":"51.79946","longitude":"19.46723","paymentavailable":true,"operatinghours":"Paczkomat: 24/7","locationdescription":"Stacja paliw LUKOIL obok marketu E.Leclerc","paymentpointdescr":"Płatność kartą wyłącznie w paczkomacie. Dostępność: 24/7","partnerid":2,"paymenttype":2,"type":"Pack Machine"},{"name":"LOD046","street":"Kopcińskiego","buildingnumber":"31","postcode":"90-142","town":"Łódź","latitude":"51.77204","longitude":"19.48197","paymentavailable":true,"operatinghours":"Paczkomat: 24/7","locationdescription":"Stacja paliw LUKOIL obok supermarketu Tesco","paymentpointdescr":"Płatność kartą wyłącznie w paczkomacie. Dostępność 24/7","partnerid":2,"paymenttype":2,"type":"Pack Machine"},{"name":"LOD051","street":"Gliniana","buildingnumber":"10","postcode":"91-336","town":"Łódź","latitude":"51.79231","longitude":"19.42315","paymentavailable":true,"operatinghours":"Paczkomat: 24/7","locationdescription":"Stacja paliw LOTOS przy rondzie Korfantego","paymentpointdescr":"Płatności można dokonać w stacji paliw Lotos przy której jest zlokalizowany Paczkomat. Dostępność: 24/7","partnerid":1,"paymenttype":1,"type":"Pack Machine"},{"name":"LOD057","street":"Włókniarzy","buildingnumber":"50","postcode":"91-089","town":"Łódź","latitude":"51.80047","longitude":"19.42537","paymentavailable":true,"operatinghours":"Paczkomat: 24/7","locationdescription":"Stacja paliw LUKOIL przy komisie samochodowym AIWA","paymentpointdescr":"Płatności gotówką można dokonać u naszego partnera, na wyspie z biżuterią IBIS (pasaż TESCO), ul. Pojezierska 93, w godzinach: Pn-Sb: 9-21, Nd: 10-18.<br />Płatność kartą wyłącznie w paczkomacie. Dostępność: 24/7","partnerid":2,"paymenttype":3,"type":"Pack Machine"},{"name":"LOD069","street":"Pabianicka","buildingnumber":"59","postcode":"93-548","town":"Łódź","latitude":"51.72801","longitude":"19.44786","paymentavailable":false,"operatinghours":"Paczkomat: 24/7","locationdescription":"Stacja paliw LUKOIL naprzeciwko salonu Chevrolet.","paymentpointdescr":null,"partnerid":2,"paymenttype":0,"type":"Pack Machine"},{"name":"LOD070","street":"Strykowska","buildingnumber":"13","postcode":"91-725","town":"Łódź","latitude":"51.79489","longitude":"19.48899","paymentavailable":true,"operatinghours":"Paczkomat: 24/7","locationdescription":"Stacja paliw LUKOIL","paymentpointdescr":"Płatność kartą wyłącznie w paczkomacie. Dostępność: 24/7","partnerid":2,"paymenttype":2,"type":"Pack Machine"},{"name":"LOD071","street":"Łąkowa","buildingnumber":"23","postcode":"90-554","town":"Łódź","latitude":"51.75631","longitude":"19.43734","paymentavailable":false,"operatinghours":"Paczkomat: 24/7","locationdescription":"Stacja paliw LUKOIL za kładką dla pieszych. Wjazd od Al. Mickiewicza.","paymentpointdescr":null,"partnerid":2,"paymenttype":0,"type":"Pack Machine"},{"name":"LOD072","street":"Al.Marszałka Piłsudskiego","buildingnumber":"82","postcode":"92-202","town":"Łódź","latitude":"51.76257","longitude":"19.48838","paymentavailable":false,"operatinghours":"Paczkomat: 24/7","locationdescription":"Stacja paliw LUKOIL obok Drukarni Prasowej ","paymentpointdescr":null,"partnerid":2,"paymenttype":0,"type":"Pack Machine"},{"name":"LOD089","street":"Bandurskiego","buildingnumber":"49","postcode":"94-020","town":"Łódź","latitude":"51.75266","longitude":"19.41962","paymentavailable":false,"operatinghours":"Paczkomat: 24/7","locationdescription":"Przy markecie CARREFOUR","paymentpointdescr":null,"partnerid":10,"paymenttype":0,"type":"Pack Machine"},{"name":"LOD093","street":"Szparagowa","buildingnumber":"7","postcode":"91-211","town":"Łódź","latitude":"51.80422","longitude":"19.37966","paymentavailable":false,"operatinghours":"Paczkomat: 24/7","locationdescription":"Przy markecie CARREFOUR","paymentpointdescr":null,"partnerid":0,"paymenttype":0,"type":"Pack Machine"},{"name":"LOD095","street":"Przybyszewskiego","buildingnumber":"176/178","postcode":"93-120","town":"Łódź","latitude":"51.75154","longitude":"19.50578","paymentavailable":false,"operatinghours":"Paczkomat: 24/7","locationdescription":"Przy markecie CARREFOUR","paymentpointdescr":null,"partnerid":0,"paymenttype":0,"type":"Pack Machine"},{"name":"LOD140","street":"Walerego Wróblewskiego","buildingnumber":"68","postcode":"94-035","town":"Łódź","latitude":"51.74494","longitude":"19.43966","paymentavailable":false,"operatinghours":"Paczkomat: 24/7","locationdescription":"Przy markecie KAUFLAND","paymentpointdescr":null,"partnerid":10,"paymenttype":0,"type":"Pack Machine"},{"name":"LOD402","street":"Pojezierska","buildingnumber":"93","postcode":"91-341","town":"Łódź","latitude":"51.80109","longitude":"19.42048","paymentavailable":true,"operatinghours":"Paczkomat: 24/7","locationdescription":"Przy markecie TESCO","paymentpointdescr":"Płatność kartą wyłącznie w paczkomacie. Dostępność: 24/7","partnerid":0,"paymenttype":2,"type":"Pack Machine"},{"name":"LOD403","street":"Widzewska","buildingnumber":"22","postcode":"92-308","town":"Łódź","latitude":"51.76061","longitude":"19.51957","paymentavailable":false,"operatinghours":"Paczkomat: 24/7","locationdescription":"Przy markecie TESCO","paymentpointdescr":null,"partnerid":0,"paymenttype":0,"type":"Pack Machine"},{"name":"LOD429","street":"Brzezińska","buildingnumber":"27/29","postcode":"92-103","town":"Łódź","latitude":"51.79528","longitude":"19.51234","paymentavailable":true,"operatinghours":null,"locationdescription":"Centrum Handlowe M1 Łódź","paymentpointdescr":"Płatność kartą wyłącznie w paczkomacie. Dostępność: 24/7","partnerid":0,"paymenttype":2,"type":"Pack Machine"},{"name":"LOD459","street":"Rzgowska","buildingnumber":"252","postcode":"93-338","town":"Łódź","latitude":"51.70828","longitude":"19.4877","paymentavailable":true,"operatinghours":"Paczkomat:24/7","locationdescription":"Stacja Benzynowa BP","paymentpointdescr":"Płatność kartą wyłącznie w paczkomacie. Dostępność: 24/7","partnerid":0,"paymenttype":2,"type":"Pack Machine"},{"name":"LOD832","street":"Jana Karskiego","buildingnumber":"5","postcode":"91-071","town":"Łódź","latitude":"51.77869","longitude":"19.43878","paymentavailable":false,"operatinghours":null,"locationdescription":"Przy Galerii Handlowej Manufaktura, od strony ul. Drewnowskiej","paymentpointdescr":null,"partnerid":0,"paymenttype":0,"type":"Pack Machine"},{"name":"LOD852","street":"Haszka","buildingnumber":"11","postcode":"92-502","town":"Łódź","latitude":"51.75377","longitude":"19.52836","paymentavailable":false,"operatinghours":null,"locationdescription":"przy markecie Intermarche","paymentpointdescr":null,"partnerid":0,"paymenttype":0,"type":"Pack Machine"},{"name":"LOD932","street":"Wujaka","buildingnumber":"5","postcode":"92-551","town":"Łódź","latitude":"51.757036073271","longitude":"19.536266326904","paymentavailable":false,"operatinghours":null,"locationdescription":"Przy Centrum Handlowym Galeria Widzewska ","paymentpointdescr":null,"partnerid":0,"paymenttype":0,"type":"Pack Machine"},{"name":"LOD950","street":"Maratońska ","buildingnumber":"24/32","postcode":"94-102","town":"Łódź","latitude":"51.73942","longitude":"19.39982","paymentavailable":false,"operatinghours":"Paczkomat: 24/7","locationdescription":"Przy CH Retkinia","paymentpointdescr":null,"partnerid":0,"paymenttype":0,"type":"Pack Machine"},{"name":"LOM299","street":"Al. Józefa Piłsudskiego","buildingnumber":"33","postcode":"18-400","town":"Łomża","latitude":"53.15969","longitude":"22.07681","paymentavailable":true,"operatinghours":"Paczkomat: 24/7","locationdescription":"Przy markecie KAUFLAND","paymentpointdescr":"Płatność kartą wyłącznie w paczkomacie. Dostępność: 24/7<br />","partnerid":0,"paymenttype":2,"type":"Pack Machine"},{"name":"LOM819","street":"Al. Legionów","buildingnumber":"58","postcode":"18-400","town":"Łomża","latitude":"53.16614","longitude":"22.06109","paymentavailable":false,"operatinghours":"Paczkomat: 24/7","locationdescription":"Przy stacji STATOIL","paymentpointdescr":null,"partnerid":0,"paymenttype":0,"type":"Pack Machine"},{"name":"LUB050","street":"Mełgiewska","buildingnumber":"1a","postcode":"20-209","town":"Lublin","latitude":"51.2497","longitude":"22.59292","paymentavailable":false,"operatinghours":"Paczkomat: 24/7","locationdescription":"Stacja UNIPAL w pobliżu marketu E.Leclerc","paymentpointdescr":"Płatności można dokonać u naszego partnera w stoisku Strefa GSM - telefony komórkowe w markecie LECLERC, ul. Turystyczna 1, Lublin,  w godzinach: Pn-Sb 9:00-21:00, Nd: 9:00-20:00","partnerid":52,"paymenttype":0,"type":"Pack Machine"},{"name":"LUB073","street":"Plac Dworcowy ","buildingnumber":"1","postcode":"20-408","town":"Lublin","latitude":"51.23212","longitude":"22.5686","paymentavailable":false,"operatinghours":"Paczkomat: 24/7","locationdescription":"Przy dworcu PKP","paymentpointdescr":null,"partnerid":37,"paymenttype":0,"type":"Pack Machine"},{"name":"LUB102","street":"Czechowska","buildingnumber":"19a","postcode":"20-072","town":"Lublin","latitude":"51.25181","longitude":"22.54959","paymentavailable":false,"operatinghours":"Paczkomat: 24/7","locationdescription":"Stacja paliw INPEL-FS przy Urzędzie Marszałkowskim","paymentpointdescr":null,"partnerid":55,"paymenttype":0,"type":"Pack Machine"},{"name":"LUB116","street":"Wojciechowska","buildingnumber":"54B","postcode":"20-704","town":"Lublin","latitude":"51.24721","longitude":"22.49791","paymentavailable":true,"operatinghours":"Paczkomat: 24/7","locationdescription":"Stacja paliw JAN obok F.H.U. Zimne Doły","paymentpointdescr":"Płatności można dokonać w stacji paliw JAN przy której jest zlokalizowany Paczkomat. Dostępność: 24/7","partnerid":36,"paymenttype":1,"type":"Pack Machine"},{"name":"LUB118","street":"Unii Lubelskiej","buildingnumber":"10","postcode":"20-108","town":"Lublin","latitude":"51.2447","longitude":"22.57324","paymentavailable":true,"operatinghours":"Paczkomat: 24/7","locationdescription":"Stacja paliw LUKOIL naprzeciwko komisu WEST ","paymentpointdescr":"Płatność kartą wyłącznie w paczkomacie. Dostępność: 24/7","partnerid":2,"paymenttype":2,"type":"Pack Machine"},{"name":"LUB129","street":"Czwartaków","buildingnumber":"13","postcode":"20-045","town":"Lublin","latitude":"51.24624","longitude":"22.53229","paymentavailable":false,"operatinghours":"Paczkomat: 24/7","locationdescription":"Obok akademika Helios","paymentpointdescr":null,"partnerid":53,"paymenttype":0,"type":"Pack Machine"},{"name":"LUB130","street":"Hutnicza","buildingnumber":"1","postcode":"20-218","town":"Lublin","latitude":"51.24202","longitude":"22.59425","paymentavailable":false,"operatinghours":"Paczkomat: 24/7","locationdescription":"Stacja paliw KU SŁOŃCU przy bazie PKS","paymentpointdescr":null,"partnerid":43,"paymenttype":0,"type":"Pack Machine"},